[    // Dog Cafe Manchester

    { "type": "Cafe", "properties": { "OBJECTID": 1, "Street": "The Wharf",  "Location": "Manchester" }, "geometry": { "type": "Point", "latitude": -2.25682, "longtitude": 53.473716} }, 
    { "type": "Cafe", "properties": { "OBJECTID": 2, "Street": "Dog Bowl",  "Location": "Manchester" }, "geometry": { "type": "Point", "latitude": -2.24283, "longtitude": 53.4741264 }}, 
    { "type": "Cafe", "properties": { "OBJECTID": 3, "Street": "The Bay Horse Tavern",  "Location": "Manchester" }, "geometry": { "type": "Point", "latitude": -2.23682 , "longtitude": 53.4842353} },     
    { "type": "Cafe", "properties": { "OBJECTID": 4, "Street": "The Refuge",  "Location": "Manchester" }, "geometry": { "type": "Point", "latitude": -2.24076 , "longtitude": 53.4746076} },   
    { "type": "Cafe", "properties": { "OBJECTID": 5, "Street": "The Brewdog",  "Location": "Manchester" }, "geometry": { "type": "Point", "latitude": -2.24724 , "longtitude": 53.4781501} },   
    { "type": "Cafe", "properties": { "OBJECTID": 6, "Street": "Terrace NQ",  "Location": "Manchester" }, "geometry": { "type": "Point", "latitude": -2.23668 , "longtitude": 53.484243210315924 }},   
    { "type": "Cafe", "properties": { "OBJECTID": 7, "Street": "Blackdog Ballroom",  "Location": "Manchester" }, "geometry": { "type": "Point", "latitude":  -2.2363 , "longtitude": 53.482868482536354 }},   
    { "type": "Cafe", "properties": { "OBJECTID": 8, "Street": "The Pen & Pencil",  "Location": "Manchester" }, "geometry": { "type": "Point", "latitude":   -2.23168, "longtitude": 53.48149702470163}},  
    { "type": "Cafe", "properties": { "OBJECTID": 10, "Street": "Crazy Pedros",  "Location": "Manchester" }, "geometry": { "type": "Point", "latitude":   -2.23646 , "longtitude": 53.482570667785815 }},  
    { "type": "Cafe", "properties": { "OBJECTID": 11, "Street": "The Ostrich",  "Location": "Manchester" }, "geometry": { "type": "Point", "latitude":   -2.266384 , "longtitude": 53.52833675249852 }},  
    { "type": "Cafe", "properties": { "OBJECTID": 12, "Street": "The Counter House",  "Location": "Manchester" }, "geometry": { "type": "Point", "latitude": -2.229171 , "longtitude": 53.48472531352815}},  
    { "type": "Cafe", "properties": { "OBJECTID": 13, "Street": "The Counter House",  "Location": "Manchester" }, "geometry": { "type": "Point", "latitude": -2.229171 , "longtitude": 53.4847253135281}}
]  
    
