[    // Dog Cafe

    { "type": "Cafe", "properties": { "OBJECTID": 1, "Street": "The Wharf",  "Location": "Manchester" }, "geometry": { "type": "Point", "latitude": -2.25682, "longtitude": 53.473716} }, 
    { "type": "Cafe", "properties": { "OBJECTID": 2, "Street": "Dog Bowl",  "Location": "Manchester" }, "geometry": { "type": "Point", "latitude": -2.24283, "longtitude": 53.4741264 }}, 
    { "type": "Cafe", "properties": { "OBJECTID": 3, "Street": "The Bay Horse Tavern",  "Location": "Manchester" }, "geometry": { "type": "Point", "latitude": -2.23682 , "longtitude": 53.4842353} },     
    { "type": "Cafe", "properties": { "OBJECTID": 4, "Street": "The Refuge",  "Location": "Manchester" }, "geometry": { "type": "Point", "latitude": -2.24076 , "longtitude": 53.4746076} },   
    { "type": "Cafe", "properties": { "OBJECTID": 5, "Street": "The Brewdog",  "Location": "Manchester" }, "geometry": { "type": "Point", "latitude": -2.24724 , "longtitude": 53.4781501} },   
    { "type": "Cafe", "properties": { "OBJECTID": 6, "Street": "Terrace NQ",  "Location": "Manchester" }, "geometry": { "type": "Point", "latitude": -2.23668 , "longtitude": 53.484243210315924 }},   
    { "type": "Cafe", "properties": { "OBJECTID": 7, "Street": "Blackdog Ballroom",  "Location": "Manchester" }, "geometry": { "type": "Point", "latitude":  -2.2363 , "longtitude": 53.482868482536354 }},   
    { "type": "Cafe", "properties": { "OBJECTID": 8, "Street": "The Pen & Pencil",  "Location": "Manchester" }, "geometry": { "type": "Point", "latitude":   -2.23168, "longtitude": 53.48149702470163}},  
    { "type": "Cafe", "properties": { "OBJECTID": 10, "Street": "Crazy Pedros",  "Location": "Manchester" }, "geometry": { "type": "Point", "latitude":   -2.23646 , "longtitude": 53.482570667785815 }},  
    { "type": "Cafe", "properties": { "OBJECTID": 11, "Street": "The Ostrich",  "Location": "Manchester" }, "geometry": { "type": "Point", "latitude":   -2.266384 , "longtitude": 53.52833675249852 }},  
    { "type": "Cafe", "properties": { "OBJECTID": 12, "Street": "The Counter House",  "Location": "Manchester" }, "geometry": { "type": "Point", "latitude": -2.229171 , "longtitude": 53.48472531352815,}},  
    { "type": "Cafe", "properties": { "OBJECTID": 12, "Street": "The Counter House",  "Location": "Manchester" }, "geometry": { "type": "Point", "latitude": -2.229171 , "longtitude": 53.48472531352815,}},  
    
    //Dog Bins - York

    { "type": "Feature", "properties": { "OBJECTID": 1, "Street": "Beckfield Lane", "Location": "Bus Stop Opp 232", "Ward": "Acomb", "BinType": "SMLB" }, "geometry": { "type": "Point", "latitude": -1.133652531254073, "longtitude": 53.969381042267024 } }, 
    { "type": "Feature", "properties": { "OBJECTID": 2, "Street": "Beckfield Lane", "Location": "Green Space Nextto 64", "Ward": "Acomb", "BinType": "DB" }, "geometry": { "type": "Point", "latitude": -1.135546886088138, "longtitude": 53.961080766111003  } },
    { "type": "Feature", "properties": { "OBJECTID": 3, "Street": "Beckfield Lane", "Location": "Jw Fellbrook Avenue", "Ward": "Acomb", "BinType": "SMLB" }, "geometry": { "type": "Point", "latitude": -1.135455470200361, "longtitude": 53.957395018013756  } },
    { "type": "Feature", "properties": { "OBJECTID": 5, "Street": "Beckfield Lane", "Location": "Opp Melwood Grove Os Pub", "Ward": "Acomb", "BinType": "SMLB" }, "geometry": { "type": "Point", "latitude": -1.134547320929645, "longtitude": 53.964453068229339  } },
    { "type": "Feature", "properties": { "OBJECTID": 6, "Street": "Beckfield Lane", "Location": "Os 139", "Ward": "Acomb", "BinType": "DMLB" }, "geometry": { "type": "Point",  "latitude": -1.134655158479144, "longtitude": 53.962925881353115  } },
    { "type": "Feature", "properties": { "OBJECTID": 7, "Street": "Beckfield Lane", "Location": "Os 149 By Po", "Ward": "Acomb", "BinType": "SMLB" }, "geometry": { "type": "Point",  "latitude": -1.134528937668313, "longtitude": 53.963868714611422  } },
    { "type": "Feature", "properties": { "OBJECTID": 8, "Street": "Beckfield Lane", "Location": "Os 87 By Bus Stop", "Ward": "Acomb", "BinType": "SMLB" }, "geometry": { "type": "Point",  "latitude": -1.134875987752131, "longtitude": 53.961093914646284  } },
    { "type": "Feature", "properties": { "OBJECTID": 9, "Street": "Beech Grove", "Location": "Jw Rosedale Avenue", "Ward": "Acomb", "BinType": "DB" }, "geometry": { "type": "Point",  "latitude": -1.125661485977368, "longtitude": 53.95786344424657 } },
    { "type": "Feature", "properties": { "OBJECTID": 10, "Street": "Beech Grove", "Location": "Jw Chestnut Grove", "Ward": "Acomb", "BinType": "DB" }, "geometry": { "type": "Point",  "latitude": -1.125193429621967, "longtitude": 53.956925282325109 } },
    { "type": "Feature", "properties": { "OBJECTID": 11, "Street": "Birkdale Grove", "Location": "Path At End Of Street", "Ward": "Acomb", "BinType": "DMLB" }, "geometry": { "type": "Point",  "latitude": -1.138118469245396, "longtitude": 53.962025001561905 } },
    { "type": "Feature", "properties": { "OBJECTID": 12, "Street": "Boroughbridge Road", "Location": "Bus Shelter Opp 223", "Ward": "Acomb", "BinType": "SMLB" }, "geometry": { "type": "Point",  "latitude": -1.132143921687093, "longtitude": 53.96935218287976 } },
    { "type": "Feature", "properties": { "OBJECTID": 13, "Street": "Boroughbridge Road", "Location": "Bus Stop Opp Jw Wheatlands Grove", "Ward": "Acomb", "BinType": "SMLB" }, "geometry": { "type": "Point",  "latitude": -1.129792150052162, "longtitude": 53.968085844812251 } },
    { "type": "Feature", "properties": { "OBJECTID": 14, "Street": "Boroughbridge Road", "Location": "Os 165", "Ward": "Acomb", "BinType": "SMLB" }, "geometry": { "type": "Point", "latitiude": -1.127623416663696, "longtitude": 53.966820788646146  } },
    { "type": "Feature", "properties": { "OBJECTID": 15, "Street": "Boroughbridge Road", "Location": "Path to Portal Road", "Ward": "Acomb", "BinType": "DMLB" }, "geometry": { "type": "Point",  "latitude": -1.1341876580262, "longtitude": 53.970041023024699 } },
    { "type": "Feature", "properties": { "OBJECTID": 16, "Street": "Boroughbridge Road", "Location": "Bus stop opp 127", "Ward": "Acomb", "BinType": "SMLB" }, "geometry": { "type": "Point",  "latitude": -1.126228170714467, "longtitude": 53.966478096656104 } },
    { "type": "Feature", "properties": { "OBJECTID": 17, "Street": "Boroughbridge Road", "Location": "Next to Church on path", "Ward": "Acomb", "BinType": "DB" }, "geometry": { "type": "Point",  "latitude": -1.124202430249605, "longtitude": 53.965672406492857 } },
    { "type": "Feature", "properties": { "OBJECTID": 18, "Street": "Cranbrook Avenue", "Location": "Jw Boroughbridge Road", "Ward": "Acomb", "BinType": "SMLB" }, "geometry": { "type": "Point",  "latitude": -1.124188507842329, "longtitude": 53.965609388870064 } },
    { "type": "Feature", "properties": { "OBJECTID": 19, "Street": "Danebury Drive", "Location": "Os 58 In Snicket", "Ward": "Acomb", "BinType": "DB" }, "geometry": { "type": "Point",  "latitiude": -1.129356279554943, "longtitude": 53.958276753733124  } },
    { "type": "Feature", "properties": { "OBJECTID": 20, "Street": "Fishponds wood", "Location": "Rosedale Avenue Entrance", "Ward": "Acomb", "BinType": "DMLB" }, "geometry": { "type": "Point",  "latitiude": -1.129903646498433, "longtitude": 53.957606615549849  } },
    { "type": "Feature", "properties": { "OBJECTID": 21, "Street": "Fishponds wood", "Location": "Woodlea Avenue entrance", "Ward": "Acomb", "BinType": "DMLB" }, "geometry": { "type": "Point",  "latitiude": -1.126870578921409, "longtitude": 53.958348600525582  } },
    { "type": "Feature", "properties": { "OBJECTID": 22, "Street": "Old School Lane", "Location": "Play Area Beckfield Lane", "Ward": "Acomb", "BinType": "DMLB" }, "geometry": { "type": "Point",  "latitiude": -1.137839411321801, "longtitude": 53.963730723556587  } },
    { "type": "Feature", "properties": { "OBJECTID": 23, "Street": "Ostman Road", "Location": "Os Carr Junior School", "Ward": "Acomb", "BinType": "DMLB" }, "geometry": { "type": "Point",  "latitiude": -1.127724575809578, "longtitude": 53.962705008227708  } },
    { "type": "Feature", "properties": { "OBJECTID": 24, "Street": "Princess Drive", "Location": "Side Of Electricity Sub-Station", "Ward": "Acomb", "BinType": "DB" }, "geometry": { "type": "Point",  "latitiude": -1.12262186642384,  "longtitude":53.966173196193004 } },
    { "type": "Feature", "properties": { "OBJECTID": 25, "Street": "Princess Drive", "Location": "Sovereign Park Play Area", "Ward": "Acomb", "BinType": "SMLB" }, "geometry": { "type": "Point",  "latitiude": -1.122541176555474, "longtitude": 53.965660289690277  } },
    { "type": "Feature", "properties": { "OBJECTID": 26, "Street": "Princess Drive", "Location": "Sovereign Park Play Area", "Ward": "Acomb", "BinType": "SMLB" }, "geometry": { "type": "Point",  "latitiude": -1.122706520416181, "longtitude": 53.966497383018968  } },
    { "type": "Feature", "properties": { "OBJECTID": 27, "Street": "Tostig Avenue", "Location": "Os 27 By Snicket", "Ward": "Acomb", "BinType": "SMLB" }, "geometry": { "type": "Point",  "latitiude": -1.129251592350456, "longtitude": 53.961107224575244  } },
    { "type": "Feature", "properties": { "OBJECTID": 28, "Street": "Viking Road", "Location": "Nr entrance to playground", "Ward": "Acomb", "BinType": "DMLB" }, "geometry": { "type": "Point",  "latitiude": -1.130804972498926, "longtitude": 53.961900427323229  } },
    { "type": "Feature", "properties": { "OBJECTID": 29, "Street": "Viking Road", "Location": "Os 18 In Snicket", "Ward": "Acomb", "BinType": "DB" }, "geometry": { "type": "Point", "latitude": -1.129871451580231,"longtitude":  53.960617372477827  } },
    { "type": "Feature", "properties": { "OBJECTID": 30, "Street": "Acaster Lane", "Location": "Pedestrian Entrance To Bridge", "Ward": "Bishopthorpe", "BinType": "DB" }, "geometry": { "type": "Point", "latitude": -1.09350845631195, "longtitude": 53.912684754686843  } },
    { "type": "Feature", "properties": { "OBJECTID": 31, "Street": "Bridge Road", "Location": "Os 50 Next To Flowers Making Block In Road", "Ward": "Bishopthorpe", "BinType": "SMLB" }, "geometry": { "type": "Point", "latitude": -1.104262766166248,"longtitude":  53.918086397677158  } },
    { "type": "Feature", "properties": { "OBJECTID": 32, "Street": "Church Lane", "Location": "Outside 26 Church Lane", "Ward": "Bishopthorpe", "BinType": "DMLB" }, "geometry": { "type": "Point", "latitude": -1.098263272875895,"longtitude":  53.923056875781754  } },
    { "type": "Feature", "properties": { "OBJECTID": 33, "Street": "Copmanthorpe Lane", "Location": "Next To Stone Circle", "Ward": "Bishopthorpe", "BinType": "SMLB" }, "geometry": { "type": "Point", "latitude": -1.100649671705613,"longtitude":  53.921133334460123  } },
    { "type": "Feature", "properties": { "OBJECTID": 34, "Street": "Copmanthorpe Lane", "Location": "Entrance to Penine Way", "Ward": "Bishopthorpe", "BinType": "DB" }, "geometry": { "type": "Point", "latitude": -1.105127182883437,"longtitude":  53.920384807663062  } },
    { "type": "Feature", "properties": { "OBJECTID": 35, "Street": "Ferry Lane", "Location": "Near seat on Ferry Lane", "Ward": "Bishopthorpe", "BinType": "DMLB" }, "geometry": { "type": "Point", "latitude": -1.089564841839388,"longtitude":  53.921813823735008 } },
    { "type": "Feature", "properties": { "OBJECTID": 36, "Street": "Ferry Lane", "Location": "By the river", "Ward": "Bishopthorpe", "BinType": "DB" }, "geometry": { "type": "Point", "latitude": -1.089896659590562,"longtitude":  53.921960147942798  } },
    { "type": "Feature", "properties": { "OBJECTID": 37, "Street": "Hauling Lane", "Location": "Opp Entrance To Caravan Park", "Ward": "Bishopthorpe", "BinType": "DB" }, "geometry": { "type": "Point", "latitude": -1.101746096593389,"longtitude":  53.902679939186292  } },
    { "type": "Feature", "properties": { "OBJECTID": 38, "Street": "Intake Lane", "Location": "Next To Bus Stop Opp Mount Pleasant Caravan Park", "Ward": "Bishopthorpe", "BinType": "DMLB" }, "geometry": { "type": "Point", "latitude": -1.113435699592866,"longtitude":  53.894030334449873  } },
    { "type": "Feature", "properties": { "OBJECTID": 39, "Street": "Intake Lane", "Location": "Next To Bus Stop Opp Mount Pleasant Entrance", "Ward": "Bishopthorpe", "BinType": "DMLB" }, "geometry": { "type": "Point", "latitude": -1.113435699592866,"longtitude":  53.894030334449873  } },
    { "type": "Feature", "properties": { "OBJECTID": 40, "Street": "Intake Lane", "Location": "Os Exitto Mount Pleasant Residential Side", "Ward": "Bishopthorpe", "BinType": "DB" }, "geometry": { "type": "Point", "latitude": -1.115516478268138,"longtitude":  53.89349740139145  } },
    { "type": "Feature", "properties": { "OBJECTID": 41, "Street": "Keble Park North", "Location": "At Entrance To Cycle Track", "Ward": "Bishopthorpe", "BinType": "DB" }, "geometry": { "type": "Point", "latitude": -1.099168247791766,"longtitude":  53.916385499278519  } },
    { "type": "Feature", "properties": { "OBJECTID": 42, "Street": "Main Street", "Location": "Betwen Chestnut Cottage And Jw Acaster Lane", "Ward": "Bishopthorpe", "BinType": "SMLB" }, "geometry": { "type": "Point", "latitude": -1.094344444040148,"longtitude":  53.921894893583207  } },
    { "type": "Feature", "properties": { "OBJECTID": 44, "Street": "Main Street", "Location": "Outside Library Next To Disabled Ramp", "Ward": "Bishopthorpe", "BinType": "DMLB" }, "geometry": { "type": "Point", "latitude": -1.099904055800245,"longtitude":  53.921109773724126  } },
    { "type": "Feature", "properties": { "OBJECTID": 45, "Street": "Mill Lane", "Location": "At Entrance To Yorvik Way Footpath", "Ward": "Bishopthorpe", "BinType": "DB" }, "geometry": { "type": "Point", "latitude": -1.105279448210673,"longtitude":  53.899012190607692  } },
    { "type": "Feature", "properties": { "OBJECTID": 46, "Street": "Mill Lane", "Location": "Halfway Between Hauling Lane and Darling Lane", "Ward": "Bishopthorpe", "BinType": "DB" }, "geometry": { "type": "Point", "latitude": -1.106991768525722,"longtitude":  53.902215722368815  } },
    { "type": "Feature", "properties": { "OBJECTID": 47, "Street": "Mill Lane", "Location": "Os Bus Stp Opp Jw Hauling Lane", "Ward": "Bishopthorpe", "BinType": "SMLB" }, "geometry": { "type": "Point", "latitude": -1.106927177143197,"longtitude":  53.901675954225517  } },
    { "type": "Feature", "properties": { "OBJECTID": 48, "Street": "Mill Lane", "Location": "Slipway Entrance To Yorvik Way Footpath", "Ward": "Bishopthorpe", "BinType": "DB" }, "geometry": { "type": "Point", "latitude": -1.103801028435903,"longtitude":  53.896268772807474  } },
    { "type": "Feature", "properties": { "OBJECTID": 49, "Street": "Mill Lane", "Location": "Entrance to Marina", "Ward": "Bishopthorpe", "BinType": "DMLB" }, "geometry": { "type": "Point", "latitude": -1.103800836188427,"longtitude":  53.896277759514469  } },
    { "type": "Feature", "properties": { "OBJECTID": 50, "Street": "Sim Balk Lane", "Location": "J/W Lang Road Near Street Signs", "Ward": "Bishopthorpe", "BinType": "SMLB" }, "geometry": { "type": "Point", "latitude": -1.101215618870617,"longtitude":  53.923141917742861  } },
    { "type": "Feature", "properties": { "OBJECTID": 52, "Street": "Avenue Road", "Location": "Jw Burton Stone Lane", "Ward": "Clifton", "BinType": "DMLB" }, "geometry": { "type": "Point", "latitude": -1.091158498188344,"longtitude":  53.969022294024086  } },
    { "type": "Feature", "properties": { "OBJECTID": 53, "Street": "Bootham Crescent", "Location": "Os 6", "Ward": "Clifton", "BinType": "SMLB" }, "geometry": { "type": "Point", "latitude": -1.09013581177495, "longtitude": 53.966282190178056  } },
    { "type": "Feature", "properties": { "OBJECTID": 54, "Street": "Burdyke Avenue", "Location": "No5 Bus stop", "Ward": "Clifton", "BinType": "SMLB" }, "geometry": { "type": "Point", "latitude": -1.096386061827825,"longtitude":  53.975425238367201  } },
    { "type": "Feature", "properties": { "OBJECTID": 55, "Street": "Burton Green", "Location": "School End", "Ward": "Clifton", "BinType": "DMLB" }, "geometry": { "type": "Point", "latitude": -1.084974722439816, "longtitude": 53.979212754831238  } },
    { "type": "Feature", "properties": { "OBJECTID": 56, "Street": "Burton Stone Lane", "Location": "Entrance To Bootham Stray", "Ward": "Clifton", "BinType": "DB" }, "geometry": { "type": "Point", "latitude": -1.084505534045022, "longtitude": 53.979748464395286  } },
    { "type": "Feature", "properties": { "OBJECTID": 57, "Street": "Burton Stone Lane", "Location": "Jw Crichton Avenue", "Ward": "Clifton", "BinType": "DB" }, "geometry": { "type": "Point", "latitude": -1.086102560455628, "longtitude": 53.974358806988853  } },
    { "type": "Feature", "properties": { "OBJECTID": 60, "Street": "Burton Stone Lane", "Location": "os 248", "Ward": "Clifton", "BinType": "SMLB" }, "geometry": { "type": "Point", "latitude": -1.085793946163364, "longtitude": 53.974527232889493  } },
    { "type": "Feature", "properties": { "OBJECTID": 61, "Street": "Burton Stone Lane", "Location": "Os Burton Stone Pub", "Ward": "Clifton", "BinType": "SMLB" }, "geometry": { "type": "Point", "latitude": -1.092841116170184, "longtitude": 53.967354241300079  } },
    { "type": "Feature", "properties": { "OBJECTID": 62, "Street": "Burton Stone Lane", "Location": "Os Shops By Jw Garth Terrace", "Ward": "Clifton", "BinType": "DMLB" }, "geometry": { "type": "Point", "latitude": -1.087316982198506, "longtitude": 53.972507509965276  } },
    { "type": "Feature", "properties": { "OBJECTID": 63, "Street": "Burton Stone Lane", "Location": "Playground Opp Link Avenue", "Ward": "Clifton", "BinType": "DMLB" }, "geometry": { "type": "Point", "latitiude": -1.08624145330813, "longtitude":53.976373183627082  } },
    { "type": "Feature", "properties": { "OBJECTID": 64, "Street": "Burton Stone Lane", "Location": "At the shops op Ratcliffe Street", "Ward": "Clifton", "BinType": "SMLB" }, "geometry": { "type": "Point", "latitiude": -1.087314822544085, "longtitude": 53.972606362028962  } },
    { "type": "Feature", "properties": { "OBJECTID": 65, "Street": "Clifton Green", "Location": "Opp Jw Clifton Dale", "Ward": "Clifton", "BinType": "DB" }, "geometry": { "type": "Point", "latitiude": -1.097097235016664 , "longtitude": 53.969327706892557  } },
    { "type": "Feature", "properties": { "OBJECTID": 66, "Street": "Crichton Avenue", "Location": "Os Shops By Roundabout", "Ward": "Clifton", "BinType": "SMLB" }, "geometry": { "type": "Point", "latitiude": -1.089785060233349 , "longtitude": 53.976085488362415  } },
    { "type": "Feature", "properties": { "OBJECTID": 67, "Street": "Crombie Avenue", "Location": "Jw Crichton Avenue", "Ward": "Clifton", "BinType": "DB" }, "geometry": { "type": "Point", "latitiude": -1.088837985527225 , "longtitude": 53.97546712649423  } },
    { "type": "Feature", "properties": { "OBJECTID": 68, "Street": "Falsgrave Crescent", "Location": "Jw Glencoe Street (on private land)", "Ward": "Clifton", "BinType": "SMLB" }, "geometry": { "type": "Point", "latitiude": -1.087541053102656, "longtitude": 53.971322789541802  } },
    { "type": "Feature", "properties": { "OBJECTID": 69, "Street": "Grosvenor Road", "Location": "Jw Bootham Crescent", "Ward": "Clifton", "BinType": "SMLB" }, "geometry": { "type": "Point", "latitiude": -1.087708389279748 , "longtitude": 53.968546753673486  } },
    { "type": "Feature", "properties": { "OBJECTID": 70, "Street": "Grosvenor Road", "Location": "Jw Bootham Crescent", "Ward": "Clifton", "BinType": "DMLB" }, "geometry": { "type": "Point", "latitiude": -1.087541318665841, "longtitude": 53.968518521283215  } },
    { "type": "Feature", "properties": { "OBJECTID": 71, "Street": "Grosvenor Road", "Location": "Jw Newborough Street", "Ward": "Clifton", "BinType": "SMLB" }, "geometry": { "type": "Point", "latitiude": -1.087264022443275, "longtitude": 53.968651236509942  } },
    { "type": "Feature", "properties": { "OBJECTID": 72, "Street": "Grosvenor Terrace", "Location": "Os 18", "Ward": "Clifton", "BinType": "DMLB" }, "geometry": { "type": "Point", "latitiude": -1.087908809723383, "longtitude": 53.967047270661183 } },
    { "type": "Feature", "properties": { "OBJECTID": 73, "Street": "Grosvenor Terrace", "Location": "Os 18", "Ward": "Clifton", "BinType": "DMLB" }, "geometry": { "type": "Point", "latitiude": -1.087908809723383, "longtitude": 53.967047270661183 } },
    { "type": "Feature", "properties": { "OBJECTID": 74, "Street": "Intake Avenue", "Location": "Po Jw Lucas Avenue", "Ward": "Clifton", "BinType": "SMLB" }, "geometry": { "type": "Point", "latitiude": -1.085281752675013, "longtitude": 53.974244706885194 } },
    { "type": "Feature", "properties": { "OBJECTID": 75, "Street": "Intake Avenue", "Location": "O/s Chip Shop", "Ward": "Clifton", "BinType": "SMLB" }, "geometry": { "type": "Point", "latitiude": -1.084627055718234, "longtitude": 53.974203770630488 } },
    { "type": "Feature", "properties": { "OBJECTID": 76, "Street": "Kingsway North", "Location": "Jw Roundabout", "Ward": "Clifton", "BinType": "DB" }, "geometry": { "type": "Point", "latitiude": -1.090463823662036, "longtitude": 53.976423183612781 } },
    { "type": "Feature", "properties": { "OBJECTID": 77, "Street": "Kingsway North", "Location": "On Green Os 72", "Ward": "Clifton", "BinType": "DB" }, "geometry": { "type": "Point", "latitiude": -1.092669929545392, "longtitude": 53.97383332654703 } },
    { "type": "Feature", "properties": { "OBJECTID": 78, "Street": "Kingsway North", "Location": "Primary School End", "Ward": "Clifton", "BinType": "DMLB" }, "geometry": { "type": "Point", "latitiude": -1.094599442916288, "longtitude": 53.971331226037073 } },
    { "type": "Feature", "properties": { "OBJECTID": 79, "Street": "Lady Road", "Location": "Side 11", "Ward": "Clifton", "BinType": "SMLB" }, "geometry": { "type": "Point", "latitiude": -1.090672264834996, "longtitude": 53.971750981296488 } },
    { "type": "Feature", "properties": { "OBJECTID": 80, "Street": "Pulleyn Mews", "Location": "O/s 2 opp Skelton Court", "Ward": "Clifton", "BinType": "SMLB" }, "geometry": { "type": "Point", "latitiude": -1.094838041342601, "longtitude": 53.968762443674812 } },
    { "type": "Feature", "properties": { "OBJECTID": 81, "Street": "Rawcliffe Lane", "Location": "Jw Clifton Road", "Ward": "Clifton", "BinType": "SMLB" }, "geometry": { "type": "Point", "latitiude": -1.098973745373679, "longtitude": 53.971382073158026 } },
    { "type": "Feature", "properties": { "OBJECTID": 82, "Street": "Sutton Way", "Location": "Entrance to backies", "Ward": "Clifton", "BinType": "SMLB" }, "geometry": { "type": "Point", "latitiude": -1.090784325833299, "longtitude": 53.977809765387811 } },
    { "type": "Feature", "properties": { "OBJECTID": 83, "Street": "The Avenue", "Location": "Footpath To Grove View", "Ward": "Clifton", "BinType": "DB" }, "geometry": { "type": "Point", "latitiude": -1.096830572442377, "longtitude": 53.966853992011472 } },
    { "type": "Feature", "properties": { "OBJECTID": 84, "Street": "The Esplanade", "Location": "Green Space Before Clifton Bridge", "Ward": "Clifton", "BinType": "DMLB" }, "geometry": { "type": "Point", "latitiude": -1.098986370512933, "longtitude": 53.964434412895478 } },
    { "type": "Feature", "properties": { "OBJECTID": 85, "Street": "The Esplanade", "Location": "Green Space Nr Almery Terrace", "Ward": "Clifton", "BinType": "DMLB" }, "geometry": { "type": "Point", "latitiude": -1.094880464743594, "longtitude": 53.961877919234404 } },
    { "type": "Feature", "properties": { "OBJECTID": 86, "Street": "The Esplanade", "Location": "Green Space Nr Almery Terrrace", "Ward": "Clifton", "BinType": "DMLB" }, "geometry": { "type": "Point", "latitiude": -1.092829784486897, "longtitude": 53.961556863694213 } },
    { "type": "Feature", "properties": { "OBJECTID": 87, "Street": "The Esplanade", "Location": "Near Burdyke Pumping Station", "Ward": "Clifton", "BinType": "SMLB" }, "geometry": { "type": "Point", "latitiude": -1.09798217200092,  "longtitude":53.965056043537523 } },
    { "type": "Feature", "properties": { "OBJECTID": 88, "Street": "The Esplanade", "Location": "Near Burdyke Pumping Station", "Ward": "Clifton", "BinType": "SMLB" }, "geometry": { "type": "Point", "latitiude": -1.09798217200092,  "longtitude":53.965056043537523 } },
    { "type": "Feature", "properties": { "OBJECTID": 89, "Street": "The Esplanade", "Location": "Nr School Entrance", "Ward": "Clifton", "BinType": "DMLB" }, "geometry": { "type": "Point", "latitiude": -1.096105718052542, "longtitude": 53.962309579070144 } },
    { "type": "Feature", "properties": { "OBJECTID": 90, "Street": "The Esplanade", "Location": "Os Canoe Club Nr Scarborough Bridge", "Ward": "Clifton", "BinType": "DMLB" }, "geometry": { "type": "Point", "latitiude": -1.094880464743594, "longtitude": 53.961877919234404 } },
    { "type": "Feature", "properties": { "OBJECTID": 91, "Street": "The Esplanade", "Location": "Scarborough Bridge", "Ward": "Clifton", "BinType": "DMLB" }, "geometry": { "type": "Point", "latitiude": -1.092829784486897, "longtitude": 53.961556863694213 } },
    { "type": "Feature", "properties": { "OBJECTID": 92, "Street": "The Esplanade", "Location": "Scarborough Bridge", "Ward": "Clifton", "BinType": "DMLB" }, "geometry": { "type": "Point", "latitiude": -1.092829784486897, "longtitude": 53.961556863694213 } },
    { "type": "Feature", "properties": { "OBJECTID": 93, "Street": "Water End", "Location": "Clifton Bridge", "Ward": "Clifton", "BinType": "SMLB" }, "geometry": { "type": "Point", "latitiude": -1.102803963895306, "longtitude": 53.967662714374526 } },
    { "type": "Feature", "properties": { "OBJECTID": 94, "Street": "Water End", "Location": "Entrance To The Homestead", "Ward": "Clifton", "BinType": "SMLB" }, "geometry": { "type": "Point", "latitiude": -1.100686478759012, "longtitude": 53.969013070877395 } },
    { "type": "Feature", "properties": { "OBJECTID": 95, "Street": "Westminster Road", "Location": "End Of Road At St Olaves Entrance", "Ward": "Clifton", "BinType": "DB" }, "geometry": { "type": "Point", "latitiude": -1.09692251048638,  "longtitude":53.966126651320103 } },
    { "type": "Feature", "properties": { "OBJECTID": 96, "Street": "Wigginton Road", "Location": "Opp 74", "Ward": "Guildhall", "BinType": "SMLB" }, "geometry": { "type": "Point", "latitiude": -1.082058235586628, "longtitude": 53.975235781225564 } },
    { "type": "Feature", "properties": { "OBJECTID": 97, "Street": "Wilberforce Avenue", "Location": "Opp Jw Garth Terrace", "Ward": "Clifton", "BinType": "DB" }, "geometry": { "type": "Point", "latitiude": -1.089271601941564, "longtitude": 53.973061618495258 } },
    { "type": "Feature", "properties": { "OBJECTID": 98, "Street": "Bootham", "Location": "At Jw Abbey Street", "Ward": "Clifton", "BinType": "SMLB" }, "geometry": { "type": "Point", "latitiude": -1.096074848890029, "longtitude": 53.969373950445288 } },
    { "type": "Feature", "properties": { "OBJECTID": 99, "Street": "Bootham", "Location": "Opp The Green Nr Waterlane", "Ward": "Clifton", "BinType": "SMLB" }, "geometry": { "type": "Point", "latitiude": -1.096406093668908, "longtitude": 53.96956519000539 } },
    { "type": "Feature", "properties": { "OBJECTID": 100, "Street": "Bootham", "Location": "Os 44 By Bingo Club", "Ward": "Clifton", "BinType": "SMLB" }, "geometry": { "type": "Point", "latitiude": -1.093884584438514, "longtitude": 53.967739610486177 } },
    { "type": "Feature", "properties": { "OBJECTID": 102, "Street": "Back Lane", "Location": "Between 2 And 3", "Ward": "Copmanthorpe", "BinType": "DB" }, "geometry": { "type": "Point", "latitiude": -1.143991374685251, "longtitude": 53.913405665387721 } },
    { "type": "Feature", "properties": { "OBJECTID": 103, "Street": "Back Lane", "Location": "Next To Vets", "Ward": "Copmanthorpe", "BinType": "DB" }, "geometry": { "type": "Point", "latitiude": -1.143455038346481, "longtitude": 53.915064638005219 } },
    { "type": "Feature", "properties": { "OBJECTID": 104, "Street": "Church Street", "Location": "Next To Post Box", "Ward": "Copmanthorpe", "BinType": "DMLB" }, "geometry": { "type": "Point", "latitiude": -1.141289756505368, "longtitude": 53.915228940234911 } },
    { "type": "Feature", "properties": { "OBJECTID": 105, "Street": "Colton Lane", "Location": "Old Roman Road", "Ward": "Copmanthorpe", "BinType": "DB" }, "geometry": { "type": "Point", "latitiude": -1.146607618224707, "longtitude": 53.917253204251089 } },
    { "type": "Feature", "properties": { "OBJECTID": 106, "Street": "Copmanthorpe Community Centre", "Location": "Near Community Centre", "Ward": "Copmanthorpe", "BinType": "SMLB" }, "geometry": { "type": "Point", "latitude": -1.136550146197467, "longtitude": 53.914718595760831 } },
    { "type": "Feature", "properties": { "OBJECTID": 107, "Street": "Copmanthorpe Community Centre", "Location": "Near Entrance", "Ward": "Copmanthorpe", "BinType": "SMLB" }, "geometry": { "type": "Point", "latitude": -1.136720927674823, "longtitude": 53.914558037629241 } },
    { "type": "Feature", "properties": { "OBJECTID": 108, "Street": "Copmanthorpe Community Centre", "Location": "Near Entrance", "Ward": "Copmanthorpe", "BinType": "SMLB" }, "geometry": { "type": "Point", "latitude": -1.136908597477741, "longtitude": 53.91431670778703 } },
    { "type": "Feature", "properties": { "OBJECTID": 110, "Street": "Flaxman Croft", "Location": "Flaxman Entrance To Copmanthorpe Primary", "Ward": "Copmanthorpe", "BinType": "DMLB" }, "geometry": { "type": "Point", "latitude": -1.138365658614024, "longtitude": 53.91675395207961 } },
    { "type": "Feature", "properties": { "OBJECTID": 111, "Street": "Flaxman Croft", "Location": "Opp 22 Next To Bus Stop", "Ward": "Copmanthorpe", "BinType": "SMLB" }, "geometry": { "type": "Point", "latitude": -1.133421781129249, "longtitude": 53.918749696050504 } },
    { "type": "Feature", "properties": { "OBJECTID": 112, "Street": "Flaxman Croft", "Location": "Opp Jw Farmers Way Next To Noticeboard", "Ward": "Copmanthorpe", "BinType": "DB" }, "geometry": { "type": "Point", "latitude": -1.134344316325901, "longtitude": 53.918315931406148 } },
    { "type": "Feature", "properties": { "OBJECTID": 113, "Street": "Flaxman Croft", "Location": "Opp Jw Gardeners Close At Bus Stop", "Ward": "Copmanthorpe", "BinType": "SMLB" }, "geometry": { "type": "Point", "latitude": -1.137194070532707, "longtitude": 53.917455601451401 } },
    { "type": "Feature", "properties": { "OBJECTID": 114, "Street": "Hallcroft Lane", "Location": "Opp 4 Next To Bus Stop", "Ward": "Copmanthorpe", "BinType": "SMLB" }, "geometry": { "type": "Point", "latitude": -1.143039431385832, "longtitude": 53.918261431232295 } },
    { "type": "Feature", "properties": { "OBJECTID": 115, "Street": "Horseman Drive", "Location": "Horseman Drive Jw Horseman Lane", "Ward": "Copmanthorpe", "BinType": "DB" }, "geometry": { "type": "Point", "latitude": -1.142294327246329, "longtitude": 53.916728139443798 } },
    { "type": "Feature", "properties": { "OBJECTID": 116, "Street": "Horseman Lane", "Location": "Next To Number 3", "Ward": "Copmanthorpe", "BinType": "SMLB" }, "geometry": { "type": "Point", "latitude": -1.142125277906291, "longtitude": 53.91606181406074 } },
    { "type": "Feature", "properties": { "OBJECTID": 117, "Street": "Low Green", "Location": "Near Jw Croft Farm Close", "Ward": "Copmanthorpe", "BinType": "DMLB" }, "geometry": { "type": "Point", "latitude": -1.138874121455021, "longtitude": 53.916460991344081 } },
    { "type": "Feature", "properties": { "OBJECTID": 118, "Street": "Low Green", "Location": "Next To 12", "Ward": "Copmanthorpe", "BinType": "DB" }, "geometry": { "type": "Point", "latitude": -1.139090501563398, "longtitude": 53.915563733651844 } },
    { "type": "Feature", "properties": { "OBJECTID": 120, "Street": "Low Green", "Location": "Opp Jw Croft Farm Close", "Ward": "Copmanthorpe", "BinType": "DB" }, "geometry": { "type": "Point", "latitude": -1.138874121455021, "longtitude": 53.916460991344081 } },
    { "type": "Feature", "properties": { "OBJECTID": 121, "Street": "Low Green", "Location": "Jnc with Merchant Way", "Ward": "Copmanthorpe", "BinType": "DMLB" }, "geometry": { "type": "Point", "latitude": -1.138365658614024, "longtitude": 53.91675395207961 } },
    { "type": "Feature", "properties": { "OBJECTID": 122, "Street": "Manor Heath", "Location": "Jn with Colton Lane/ Hallcroft Lane", "Ward": "Copmanthorpe", "BinType": "DMLB" }, "geometry": { "type": "Point", "latitude": -1.146146886094698, "longtitude": 53.917447667956473 } },
    { "type": "Feature", "properties": { "OBJECTID": 123, "Street": "Manor Heath", "Location": "Near Jw A1237 At Bus Stop", "Ward": "Copmanthorpe", "BinType": "SMLB" }, "geometry": { "type": "Point", "latitude": -1.151513124278495, "longtitude": 53.919364199241585 } },
    { "type": "Feature", "properties": { "OBJECTID": 124, "Street": "Manor Heath", "Location": "Os 66", "Ward": "Copmanthorpe", "BinType": "SMLB" }, "geometry": { "type": "Point", "latitude": -1.149191207022664, "longtitude": 53.919734263722859 } },
    { "type": "Feature", "properties": { "OBJECTID": 125, "Street": "Moor Lane", "Location": "After 51 Towards T Junction", "Ward": "Copmanthorpe", "BinType": "DB" }, "geometry": { "type": "Point", "latitude": -1.144864959601443, "longtitude": 53.909394211756499 } },
    { "type": "Feature", "properties": { "OBJECTID": 126, "Street": "Moor Lane", "Location": "Next To War Memorial", "Ward": "Copmanthorpe", "BinType": "SMLB" }, "geometry": { "type": "Point", "latitude": -1.141652957371961, "longtitude": 53.914593381966817 } },
    { "type": "Feature", "properties": { "OBJECTID": 127, "Street": "Moor Lane", "Location": "Opp Copmanthorpe Motor Sales Garage", "Ward": "Copmanthorpe", "BinType": "SMLB" }, "geometry": { "type": "Point", "latitude": -1.142275777276223, "longtitude": 53.912431701634574 } },
    { "type": "Feature", "properties": { "OBJECTID": 128, "Street": "St Giles Way", "Location": "RHS as you turn in from Main Street", "Ward": "Copmanthorpe", "BinType": "DMLB" }, "geometry": { "type": "Point", "latitude": -1.141818075607462, "longtitude": 53.913965395635913 } },
    { "type": "Feature", "properties": { "OBJECTID": 129, "Street": "Tadcaster Road", "Location": "At End Of Road Next To Footpath Parallel To A64", "Ward": "Copmanthorpe", "BinType": "DB" }, "geometry": { "type": "Point", "latitude": -1.13747106516826,  "longtitude":53.921007883520446 } },
    { "type": "Feature", "properties": { "OBJECTID": 130, "Street": "Tadcaster Road", "Location": "On Road To Copmanthorpe Next To Pond", "Ward": "Copmanthorpe", "BinType": "DB" }, "geometry": { "type": "Point", "latitude": -1.128371741815204, "longtitude": 53.922164584821893 } },
    { "type": "Feature", "properties": { "OBJECTID": 131, "Street": "Tadcaster Road", "Location": "Opp 68 Next To Bus Stop", "Ward": "Copmanthorpe", "BinType": "SMLB" }, "geometry": { "type": "Point", "latitude": -1.137256993939692, "longtitude": 53.92105128668981 } },
    { "type": "Feature", "properties": { "OBJECTID": 132, "Street": "Tadcaster Road", "Location": "Bottom Of St Nicholas Road", "Ward": "Copmanthorpe", "BinType": "DB" }, "geometry": { "type": "Point", "latitude": -1.143710272069221, "longtitude": 53.920450318133454 } },
    { "type": "Feature", "properties": { "OBJECTID": 134, "Street": "Temple Lane", "Location": "Next To Allotment Entrance", "Ward": "Copmanthorpe", "BinType": "DB" }, "geometry": { "type": "Point", "latitude": -1.135565860936298, "longtitude": 53.911511755160518 } },
    { "type": "Feature", "properties": { "OBJECTID": 136, "Street": "Top Lane", "Location": "At Bus Stop Opp 35", "Ward": "Copmanthorpe", "BinType": "SMLB" }, "geometry": { "type": "Point", "latitude": -1.139689459877587, "longtitude": 53.919756471965577 } },
    { "type": "Feature", "properties": { "OBJECTID": 137, "Street": "Wheelwright Close", "Location": "Beginning Of Footpath Near 6", "Ward": "Copmanthorpe", "BinType": "DB" }, "geometry": { "type": "Point", "latitude": -1.135299504020933, "longtitude": 53.916300491297307 } },
    { "type": "Feature", "properties": { "OBJECTID": 138, "Street": "Whistler Close", "Location": "Back Of Number Two On Footpath", "Ward": "Copmanthorpe", "BinType": "DB" }, "geometry": { "type": "Point", "latitude": -1.132670832119926, "longtitude": 53.918249931562116 } },
    { "type": "Feature", "properties": { "OBJECTID": 139, "Street": "Acomb Wood Drive", "Location": "Acomb Woods Shop Entrance To Acomb Wood", "Ward": "Dringhouses and Woodthorpe", "BinType": "SMLB" }, "geometry": { "type": "Point", "latitude": -1.134219414419732, "longtitude": 53.937603435104513 } },
    { "type": "Feature", "properties": { "OBJECTID": 140, "Street": "Acomb Wood Drive", "Location": "Litterbin Round 5", "Ward": "Dringhouses and Woodthorpe", "BinType": "DB" }, "geometry": { "type": "Point", "latitude": -1.135988576663166, "longtitude": 53.936762304773985 } },
    { "type": "Feature", "properties": { "OBJECTID": 141, "Street": "Acomb Wood Drive", "Location": "Opp 32", "Ward": "Dringhouses and Woodthorpe", "BinType": "DMLB" }, "geometry": { "type": "Point", "latitude": -1.135757893053063, "longtitude": 53.936868502381905 } },
    { "type": "Feature", "properties": { "OBJECTID": 142, "Street": "Aintree Court", "Location": "Access To Mayfield Pond", "Ward": "Dringhouses and Woodthorpe", "BinType": "DB" }, "geometry": { "type": "Point", "latitude": -1.108216004611368, "longtitude": 53.941925258397788 } },
    { "type": "Feature", "properties": { "OBJECTID": 143, "Street": "Alness Drive", "Location": "Bus Stop Os 33", "Ward": "Dringhouses and Woodthorpe", "BinType": "DMLB" }, "geometry": { "type": "Point", "latitude": -1.13648761693562,  "longtitude":53.935462623841815 } },
    { "type": "Feature", "properties": { "OBJECTID": 144, "Street": "Alness Drive", "Location": "Snicket By Side Of 82", "Ward": "Dringhouses and Woodthorpe", "BinType": "DB" }, "geometry": { "type": "Point", "latitude": -1.137567608718491, "longtitude": 53.938490368079123 } },
    { "type": "Feature", "properties": { "OBJECTID": 145, "Street": "Ashbourne Way", "Location": "Jw Foxton", "Ward": "Dringhouses and Woodthorpe", "BinType": "DMLB" }, "geometry": { "type": "Point", "latitude": -1.128960117808138, "longtitude": 53.93925517810203 } },
    { "type": "Feature", "properties": { "OBJECTID": 146, "Street": "Ashbourne Way", "Location": "Jw Ryecroft Avenue", "Ward": "Dringhouses and Woodthorpe", "BinType": "DB" }, "geometry": { "type": "Point", "latitude": -1.128576208743212, "longtitude": 53.93794013744963 } },
    { "type": "Feature", "properties": { "OBJECTID": 147, "Street": "Askham Bar ", "Location": "Park & Ride ", "Ward": "Dringhouses and Woodthorpe", "BinType": "SMLB" }, "geometry": { "type": "Point", "latitude": -1.117492586604045, "longtitude": 53.928988007531636 } },
    { "type": "Feature", "properties": { "OBJECTID": 148, "Street": "Bellhouse Way", "Location": "Foxwood Park on path", "Ward": "Dringhouses and Woodthorpe", "BinType": "DMLB" }, "geometry": { "type": "Point", "latitude": -1.129879778748996, "longtitude": 53.940448265291373 } },
    { "type": "Feature", "properties": { "OBJECTID": 149, "Street": "Bellhouse Way", "Location": "Opp Community Centre", "Ward": "Dringhouses and Woodthorpe", "BinType": "SMLB" }, "geometry": { "type": "Point", "latitude": -1.12978614489879,  "longtitude":53.940555443877351 } },
    { "type": "Feature", "properties": { "OBJECTID": 150, "Street": "Bog Lane", "Location": "Jw Moor Lane Layby", "Ward": "Rural West York", "BinType": "SMLB" }, "geometry": { "type": "Point", "latitude": -1.134193587988923, "longtitude": 53.931491366203481 } },
    { "type": "Feature", "properties": { "OBJECTID": 151, "Street": "Bracken Road", "Location": "Opp 1", "Ward": "Micklegate", "BinType": "DB" }, "geometry": { "type": "Point", "latitude": -1.104555190228354, "longtitude": 53.935732210401895 } },
    { "type": "Feature", "properties": { "OBJECTID": 152, "Street": "Bracken Road", "Location": "Opp Jw Whin Hill", "Ward": "Micklegate", "BinType": "DB" }, "geometry": { "type": "Point", "latitude": -1.101334031521441, "longtitude": 53.933937506990034 } },
    { "type": "Feature", "properties": { "OBJECTID": 153, "Street": "Bracken Road", "Location": "Opp Jw Whin Road", "Ward": "Micklegate", "BinType": "DB" }, "geometry": { "type": "Point", "latitude": -1.101405138740229, "longtitude": 53.934881788019375 } },
    { "type": "Feature", "properties": { "OBJECTID": 154, "Street": "Bracken Road", "Location": "Opp Jw Whin Road", "Ward": "Micklegate", "BinType": "DB" }, "geometry": { "type": "Point", "latitude": -1.101376417004788, "longtitude": 53.934800680418242 } },
    { "type": "Feature", "properties": { "OBJECTID": 156, "Street": "Chaloners road", "Location": "Jn with Sandcroft Road", "Ward": "Dringhouses and Woodthorpe", "BinType": "DMLB" }, "geometry": { "type": "Point", "latitude": -1.120059269031809, "longtitude": 53.942363108769904 } },
    { "type": "Feature", "properties": { "OBJECTID": 157, "Street": "Chaloners Road", "Location": "Wains Grove Park Entrance", "Ward": "Dringhouses and Woodthorpe", "BinType": "DB" }, "geometry": { "type": "Point", "latitude": -1.120090333120716, "longtitude": 53.938714182095381 } },
    { "type": "Feature", "properties": { "OBJECTID": 158, "Street": "Cherry Lane", "Location": "End Of Cherry Lane By Race Course", "Ward": "Micklegate", "BinType": "DMLB" }, "geometry": { "type": "Point", "latitude": -1.102246590277596, "longtitude": 53.938258609827905 } },
    { "type": "Feature", "properties": { "OBJECTID": 159, "Street": "Cherry Lane", "Location": "End Of Cherry Lane, By Racecourse", "Ward": "Micklegate", "BinType": "SMLB" }, "geometry": { "type": "Point", "latitude": -1.102246204522864, "longtitude": 53.938276583107708 } },
    { "type": "Feature", "properties": { "OBJECTID": 160, "Street": "Cherry Lane", "Location": "End Of Road By Knavesmire", "Ward": "Micklegate", "BinType": "SMLB" }, "geometry": { "type": "Point", "latitude": -1.102246204522864, "longtitude": 53.938276583107708 } },
    { "type": "Feature", "properties": { "OBJECTID": 162, "Street": "Eason View", "Location": "Os 20", "Ward": "Dringhouses and Woodthorpe", "BinType": "DMLB" }, "geometry": { "type": "Point", "latitude": -1.115720048158504, "longtitude": 53.940075248276727 } },
    { "type": "Feature", "properties": { "OBJECTID": 163, "Street": "Eason View", "Location": "Os 68", "Ward": "Dringhouses and Woodthorpe", "BinType": "SMLB" }, "geometry": { "type": "Point", "latitude": -1.119297941691336, "longtitude": 53.938726352670713 } },
    { "type": "Feature", "properties": { "OBJECTID": 164, "Street": "Girvan Close", "Location": "End Of Road Green Space By Fence", "Ward": "Dringhouses and Woodthorpe", "BinType": "DMLB" }, "geometry": { "type": "Point", "latitude": -1.133852259217295, "longtitude": 53.936207639648885 } },
    { "type": "Feature", "properties": { "OBJECTID": 165, "Street": "Girvan Close", "Location": "End Of Road Nr Jw Eden Close", "Ward": "Dringhouses and Woodthorpe", "BinType": "DMLB" }, "geometry": { "type": "Point", "latitude": -1.133852259217295, "longtitude": 53.936207639648885 } },
    { "type": "Feature", "properties": { "OBJECTID": 166, "Street": "Girvan Close", "Location": "End Of Road On Green Space", "Ward": "Dringhouses and Woodthorpe", "BinType": "DB" }, "geometry": { "type": "Point", "latitude": -1.133801759138454, "longtitude": 53.935703944161418 } },
    { "type": "Feature", "properties": { "OBJECTID": 167, "Street": "Hob Moor", "Location": "Back Of 39 Hob Moor Drive", "Ward": "Holgate", "BinType": "DB" }, "geometry": { "type": "Point", "latitude": -1.108341595113948, "longtitude": 53.949610986436475 } },
    { "type": "Feature", "properties": { "OBJECTID": 168, "Street": "Hob Moor", "Location": "Back Of 57 Hob Moor Drive", "Ward": "Dringhouses and Woodthorpe", "BinType": "DMLB" }, "geometry": { "type": "Point", "latitude": -1.110174570417523, "longtitude": 53.949399872101026 } },
    { "type": "Feature", "properties": { "OBJECTID": 169, "Street": "Hob Moor", "Location": "Back Of 57 Hob Moor Drive", "Ward": "Dringhouses and Woodthorpe", "BinType": "DMLB" }, "geometry": { "type": "Point", "latitude": -1.110174570417523, "longtitude": 53.949399872101026 } },
    { "type": "Feature", "properties": { "OBJECTID": 170, "Street": "Kingsway West", "Location": "Entrance To Hob Moor With Cattlegrid", "Ward": "Dringhouses and Woodthorpe", "BinType": "DB" }, "geometry": { "type": "Point", "latitude": -1.1214820627044,  "longtitude":53.944980056918901 }},
    { "type": "Feature", "properties": { "OBJECTID": 171, "Street": "Leeside", "Location": "In Play Area", "Ward": "Dringhouses and Woodthorpe", "BinType": "SMLB" }, "geometry": { "type": "Point", "latitude": -1.117970331505004, "longtitude": 53.940280537794173 } },
    { "type": "Feature", "properties": { "OBJECTID": 172, "Street": "Leeside", "Location": "In Play Area", "Ward": "Dringhouses and Woodthorpe", "BinType": "SMLB" }, "geometry": { "type": "Point", "latitude": -1.117954531373833, "longtitude": 53.940307386005806 } },
    { "type": "Feature", "properties": { "OBJECTID": 173, "Street": "Leven Road", "Location": "On Green Os 45", "Ward": "Dringhouses and Woodthorpe", "BinType": "DB" }, "geometry": { "type": "Point", "latitude": -1.11816444546505,  "longtitude":53.937576554063057 } },
    { "type": "Feature", "properties": { "OBJECTID": 175, "Street": "Little Hob Moor", "Location": "Near Hob Moor Terrace", "Ward": "Dringhouses and Woodthorpe", "BinType": "DB" }, "geometry": { "type": "Point", "latitude": -1.106192215356868, "longtitude": 53.946089673316123 } },
    { "type": "Feature", "properties": { "OBJECTID": 176, "Street": "Little Hob Moor", "Location": "Near Underpass", "Ward": "Dringhouses and Woodthorpe", "BinType": "DMLB" }, "geometry": { "type": "Point", "latitude": -1.107119240298992, "longtitude": 53.946914479294087 } },
    { "type": "Feature", "properties": { "OBJECTID": 177, "Street": "Little Hob Moor", "Location": "Nr Allotments", "Ward": "Dringhouses and Woodthorpe", "BinType": "DB" }, "geometry": { "type": "Point", "latitude": -1.103715119561911, "longtitude": 53.946502649331272 } },
    { "type": "Feature", "properties": { "OBJECTID": 178, "Street": "Lovell House", "Location": "Jw Wains Road", "Ward": "Westfield", "BinType": "DMLB" }, "geometry": { "type": "Point", "latitude": -1.123733846044682, "longtitude": 53.942219189411745 } },
    { "type": "Feature", "properties": { "OBJECTID": 179, "Street": "Middlethorpe Grove", "Location": "Os 36", "Ward": "Dringhouses and Woodthorpe", "BinType": "DMLB" }, "geometry": { "type": "Point", "latitude": -1.105553778796009, "longtitude": 53.935335184954162 } },
    { "type": "Feature", "properties": { "OBJECTID": 180, "Street": "Moor Lane", "Location": "Bus Stop Nr Annan Close", "Ward": "Dringhouses and Woodthorpe", "BinType": "SMLB" }, "geometry": { "type": "Point", "latitude": -1.127998786010117, "longtitude": 53.933486855626739 } },
    { "type": "Feature", "properties": { "OBJECTID": 181, "Street": "Moor Lane", "Location": "Bus Stop Os 104", "Ward": "Dringhouses and Woodthorpe", "BinType": "SMLB" }, "geometry": { "type": "Point", "latitude": -1.12376320392308,  "longtitude":53.933545920161357 } },
    { "type": "Feature", "properties": { "OBJECTID": 182, "Street": "Moor Lane", "Location": "Bus Stop Os 134", "Ward": "Dringhouses and Woodthorpe", "BinType": "SMLB" }, "geometry": { "type": "Point", "latitude": -1.132229063466561, "longtitude": 53.932214214407651 } },
    { "type": "Feature", "properties": { "OBJECTID": 183, "Street": "Moor Lane", "Location": "Green Area Behind 54", "Ward": "Dringhouses and Woodthorpe", "BinType": "DMLB" }, "geometry": { "type": "Point", "latitude": -1.118910685431698, "longtitude": 53.933968823674334 } },
    { "type": "Feature", "properties": { "OBJECTID": 184, "Street": "Moor Lane", "Location": "Green Space Back Of 54", "Ward": "Dringhouses and Woodthorpe", "BinType": "DMLB" }, "geometry": { "type": "Point", "latitude": -1.118910685431698, "longtitude": 53.933968823674334 } },
    { "type": "Feature", "properties": { "OBJECTID": 185, "Street": "Moor Lane", "Location": "Os 136", "Ward": "Dringhouses and Woodthorpe", "BinType": "DB" }, "geometry": { "type": "Point", "latitude": -1.132185614181473, "longtitude": 53.932106043759724 } },
    { "type": "Feature", "properties": { "OBJECTID": 186, "Street": "Moor Lane", "Location": "Os 160", "Ward": "Dringhouses and Woodthorpe", "BinType": "DMLB" }, "geometry": { "type": "Point", "latitude": -1.135597955404043, "longtitude": 53.932813736107846 } },
    { "type": "Feature", "properties": { "OBJECTID": 187, "Street": "Moor Lane", "Location": "Side Of 54 Off Licence", "Ward": "Dringhouses and Woodthorpe", "BinType": "DB" }, "geometry": { "type": "Point", "latitude": -1.118880983945633, "longtitude": 53.933932653553228 } },
    { "type": "Feature", "properties": { "OBJECTID": 189, "Street": "Moorcroft Road", "Location": "Green Space To Woodthorpe Shops", "Ward": "Dringhouses and Woodthorpe", "BinType": "DB" }, "geometry": { "type": "Point", "latitude": -1.124372908803593, "longtitude": 53.936435535592437 } },
    { "type": "Feature", "properties": { "OBJECTID": 190, "Street": "Moorcroft Road", "Location": "Os Woodthorpe Shops", "Ward": "Dringhouses and Woodthorpe", "BinType": "DB" }, "geometry": { "type": "Point", "latitude": -1.123323719613027, "longtitude": 53.936346992049721 } },
    { "type": "Feature", "properties": { "OBJECTID": 192, "Street": "Nelsons Lane", "Location": "Footpath Os 10", "Ward": "Dringhouses and Woodthorpe", "BinType": "DMLB" }, "geometry": { "type": "Point", "latitude": -1.107540476485934, "longtitude": 53.944311069385009 } },
    { "type": "Feature", "properties": { "OBJECTID": 193, "Street": "Nelsons Lane", "Location": "Os Playground", "Ward": "Dringhouses and Woodthorpe", "BinType": "SMLB" }, "geometry": { "type": "Point", "latitude": -1.107315817967049, "longtitude": 53.944129639185306 } },
    { "type": "Feature", "properties": { "OBJECTID": 194, "Street": "Nelson'S Lane", "Location": "Footpath Os 10", "Ward": "Dringhouses and Woodthorpe", "BinType": "SMLB" }, "geometry": { "type": "Point", "latitude": -1.107315817967049, "longtitude": 53.944129639185306 } },
    { "type": "Feature", "properties": { "OBJECTID": 195, "Street": "North Lane", "Location": "Entrance To Hob Moor", "Ward": "Dringhouses and Woodthorpe", "BinType": "DB" }, "geometry": { "type": "Point", "latitude": -1.117738521251668, "longtitude": 53.943325789688416 } },
    { "type": "Feature", "properties": { "OBJECTID": 196, "Street": "North Lane", "Location": "Opp 1A By Entrance To Hob Moor", "Ward": "Dringhouses and Woodthorpe", "BinType": "DB" }, "geometry": { "type": "Point", "latitude": -1.113084959500393, "longtitude": 53.942212962646067 } },
    { "type": "Feature", "properties": { "OBJECTID": 197, "Street": "Revival Estate", "Location": "Entrance to Principal rise", "Ward": "Dringhouses and Woodthorpe", "BinType": "DMLB" }, "geometry": { "type": "Point", "latitude": -1.112698687678906, "longtitude": 53.93313215593794 } },
    { "type": "Feature", "properties": { "OBJECTID": 198, "Street": "Sim Balk Lane", "Location": "Green Lane Cycle Path", "Ward": "Dringhouses and Woodthorpe", "BinType": "DB" }, "geometry": { "type": "Point", "latitude": -1.109482906493012, "longtitude": 53.927499796701689 } },
    { "type": "Feature", "properties": { "OBJECTID": 199, "Street": "St Helens Road", "Location": "Bus Stop at Junction with Tadcaster Road", "Ward": "Dringhouses and Woodthorpe", "BinType": "DMLB" }, "geometry": { "type": "Point", "latitude": -1.107275291727862, "longtitude": 53.940318395790563 } },
    { "type": "Feature", "properties": { "OBJECTID": 200, "Street": "St James Place", "Location": "Near Hob Moor Entrance", "Ward": "Dringhouses and Woodthorpe", "BinType": "DB" }, "geometry": { "type": "Point", "latitude": -1.11983136616212,  "longtitude":53.943781553178134 } },
    { "type": "Feature", "properties": { "OBJECTID": 201, "Street": "Summerfield Road", "Location": "Path To Glenridding", "Ward": "Dringhouses and Woodthorpe", "BinType": "DMLB" }, "geometry": { "type": "Point", "latitude": -1.126207855572049, "longtitude": 53.93609835982906 } },
    { "type": "Feature", "properties": { "OBJECTID": 202, "Street": "Summerfield Road", "Location": "Path To Glenridding", "Ward": "Dringhouses and Woodthorpe", "BinType": "DMLB" }, "geometry": { "type": "Point", "latitude": -1.126207855572049, "longtitude": 53.93609835982906 } },
    { "type": "Feature", "properties": { "OBJECTID": 203, "Street": "Summerfield Road ", "Location": "Play Area ", "Ward": "Dringhouses and Woodthorpe", "BinType": "SMLB" }, "geometry": { "type": "Point", "latitude": -1.12616441796098,  "longtitude":53.935990187117334 } },
    { "type": "Feature", "properties": { "OBJECTID": 204, "Street": "Tadcaster Road", "Location": "Between Roundabout And Old Moor Lane", "Ward": "Dringhouses and Woodthorpe", "BinType": "SMLB" }, "geometry": { "type": "Point", "latitude": -1.112285191741908, "longtitude": 53.933956004821333 } },
    { "type": "Feature", "properties": { "OBJECTID": 205, "Street": "Tadcaster Road", "Location": "Bus Shelter At Tesco Exit", "Ward": "Dringhouses and Woodthorpe", "BinType": "DMLB" }, "geometry": { "type": "Point", "latitude": -1.114311435904209, "longtitude": 53.933215960451633 } },
    { "type": "Feature", "properties": { "OBJECTID": 206, "Street": "Tadcaster Road", "Location": "Bus Shelter At Tesco Exit", "Ward": "Dringhouses and Woodthorpe", "BinType": "DMLB" }, "geometry": { "type": "Point", "latitude": -1.114311435904209, "longtitude": 53.933215960451633 } },
    { "type": "Feature", "properties": { "OBJECTID": 208, "Street": "Tadcaster Road", "Location": "Bus Stop Opp York College", "Ward": "Dringhouses and Woodthorpe", "BinType": "DMLB" }, "geometry": { "type": "Point", "latitude": -1.114744643189342, "longtitude": 53.93073844288471 } },
    { "type": "Feature", "properties": { "OBJECTID": 209, "Street": "Tadcaster Road", "Location": "Bus Stop Os 26", "Ward": "Dringhouses and Woodthorpe", "BinType": "SMLB" }, "geometry": { "type": "Point", "latitude": -1.106353526316968, "longtitude": 53.940680054688464 } },
    { "type": "Feature", "properties": { "OBJECTID": 210, "Street": "Tadcaster Road", "Location": "Bus Stop Os York College", "Ward": "Dringhouses and Woodthorpe", "BinType": "DMLB" }, "geometry": { "type": "Point", "latitude": -1.115145491121411, "longtitude": 53.929788659048398 } },
    { "type": "Feature", "properties": { "OBJECTID": 211, "Street": "Tadcaster Road", "Location": "By Traffic Lights Opp York College", "Ward": "Dringhouses and Woodthorpe", "BinType": "DMLB" }, "geometry": { "type": "Point", "latitude": -1.114751107861709, "longtitude": 53.930432895696612 } },   
    { "type": "Feature", "properties": { "OBJECTID": 213, "Street": "Tadcaster Road", "Location": "Cemetery Opp York College", "Ward": "Dringhouses and Woodthorpe", "BinType": "SMLB" }, "geometry": { "type": "Point", "latitude": -1.115733296058001, "longtitude": 53.930080605605959 } },
    { "type": "Feature", "properties": { "OBJECTID": 214, "Street": "Tadcaster Road", "Location": "Jw St Leonards Hospice Bus Stop", "Ward": "Dringhouses and Woodthorpe", "BinType": "SMLB" }, "geometry": { "type": "Point", "latitude": -1.113340025723917, "longtitude": 53.93233695152913 } },
    { "type": "Feature", "properties": { "OBJECTID": 216, "Street": "Tadcaster Road", "Location": "Opp 304", "Ward": "Micklegate", "BinType": "DB" }, "geometry": { "type": "Point", "latitude": -1.103280633583596, "longtitude": 53.944027688451456 } },
    { "type": "Feature", "properties": { "OBJECTID": 217, "Street": "Tadcaster Road", "Location": "Opp 84 In Layby", "Ward": "Dringhouses and Woodthorpe", "BinType": "DMLB" }, "geometry": { "type": "Point", "latitude": -1.108263140619161, "longtitude": 53.93828543831647 } },
    { "type": "Feature", "properties": { "OBJECTID": 218, "Street": "Tadcaster Road", "Location": "Opp Jw Ainsty Grove", "Ward": "Micklegate", "BinType": "DB" }, "geometry": { "type": "Point", "latitude": -1.104768349286677, "longtitude": 53.942142298625193 } },
    { "type": "Feature", "properties": { "OBJECTID": 219, "Street": "Tadcaster Road", "Location": "Opp Jw Old Moor Lane", "Ward": "Dringhouses and Woodthorpe", "BinType": "SMLB" }, "geometry": { "type": "Point", "latitude": -1.112285191741908, "longtitude": 53.933956004821333 } },
    { "type": "Feature", "properties": { "OBJECTID": 220, "Street": "Tadcaster Road", "Location": "Os 14 Aka Post Office", "Ward": "Dringhouses and Woodthorpe", "BinType": "DMLB" }, "geometry": { "type": "Point", "latitude": -1.105772661800732, "longtitude": 53.941484659762168 } },
    { "type": "Feature", "properties": { "OBJECTID": 221, "Street": "Tadcaster Road", "Location": "Os 312 By Bus Stop", "Ward": "Dringhouses and Woodthorpe", "BinType": "SMLB" }, "geometry": { "type": "Point", "latitude": -1.104462003567983, "longtitude": 53.942930966203846 } },
    { "type": "Feature", "properties": { "OBJECTID": 222, "Street": "Tadcaster Road", "Location": "Os 80", "Ward": "Dringhouses and Woodthorpe", "BinType": "SMLB" }, "geometry": { "type": "Point", "latitude": -1.108552909206559, "longtitude": 53.938269612433032 } },
    { "type": "Feature", "properties": { "OBJECTID": 223, "Street": "Tadcaster Road", "Location": "Os Hob Moor By Bus Stop", "Ward": "Dringhouses and Woodthorpe", "BinType": "SMLB" }, "geometry": { "type": "Point", "latitude": -1.102098033219953, "longtitude": 53.945888375901951 } },
    { "type": "Feature", "properties": { "OBJECTID": 224, "Street": "Tadcaster Road", "Location": "Os York College By Traffic Lights", "Ward": "Dringhouses and Woodthorpe", "BinType": "DMLB" }, "geometry": { "type": "Point", "latitude": -1.11450170771654,  "longtitude":53.939338241934095 } },
    { "type": "Feature", "properties": { "OBJECTID": 225, "Street": "Tadcaster Road", "Location": "Outside Library", "Ward": "Dringhouses and Woodthorpe", "BinType": "SMLB" }, "geometry": { "type": "Point", "latitude": -1.107633585597802, "longtitude": 53.939233500292666 } },
    { "type": "Feature", "properties": { "OBJECTID": 227, "Street": "Teal Drive", "Location": "In snicket to Heron Drive ", "Ward": "Westfield", "BinType": "DMLB" }, "geometry": { "type": "Point", "latitude": -1.126959647433946, "longtitude": 53.940948390573077 } },
    { "type": "Feature", "properties": { "OBJECTID": 229, "Street": "Thanet Road", "Location": "b/stop junc Eason View", "Ward": "Dringhouses and Woodthorpe", "BinType": "SMLB" }, "geometry": { "type": "Point", "latitude": -1.114140550110188, "longtitude": 53.941285990737825 } },
    { "type": "Feature", "properties": { "OBJECTID": 230, "Street": "Wains Grove", "Location": "Middle Of Park", "Ward": "Dringhouses and Woodthorpe", "BinType": "DMLB" }, "geometry": { "type": "Point", "latitude": -1.120398922146546, "longtitude": 53.938527692191265 } },
    { "type": "Feature", "properties": { "OBJECTID": 231, "Street": "Wains Grove", "Location": "Os 15", "Ward": "Dringhouses and Woodthorpe", "BinType": "DMLB" }, "geometry": { "type": "Point", "latitude": -1.120467215535701, "longtitude": 53.938177657504966 } },
    { "type": "Feature", "properties": { "OBJECTID": 233, "Street": "Broadway", "Location": "Opp Jw Broadway Grove", "Ward": "Fulford and Heslington", "BinType": "DB" }, "geometry": { "type": "Point", "latitude": -1.064839551296845, "longtitude": 53.940723641173633 } },
    { "type": "Feature", "properties": { "OBJECTID": 234, "Street": "Broadway", "Location": "Os Broadway Shops", "Ward": "Fishergate", "BinType": "DMLB" }, "geometry": { "type": "Point", "latitude": -1.069903460128821, "longtitude": 53.941131460066707 } },
    { "type": "Feature", "properties": { "OBJECTID": 235, "Street": "Broadway", "Location": "Snicket between shops & Danum Road", "Ward": "Fishergate", "BinType": "DMLB" }, "geometry": { "type": "Point", "latitude": -1.070165795361214, "longtitude": 53.940980692794064 } },
    { "type": "Feature", "properties": { "OBJECTID": 236, "Street": "Cemetery Road", "Location": "In Play Area", "Ward": "Fishergate", "BinType": "SMLB" }, "geometry": { "type": "Point", "latitude": -1.072841165236747, "longtitude": 53.950178210021548 } },
    { "type": "Feature", "properties": { "OBJECTID": 237, "Street": "Cemetery Road", "Location": "Path Next To Play Area", "Ward": "Fishergate", "BinType": "DB" }, "geometry": { "type": "Point", "latitude": -1.073115594485312, "longtitude": 53.950171339051494 } },
    { "type": "Feature", "properties": { "OBJECTID": 238, "Street": "Cornwall Drive", "Location": "Field At End Of Road", "Ward": "Fishergate", "BinType": "DB" }, "geometry": { "type": "Point", "latitude": -1.070102377957971, "longtitude": 53.93972186763105 } },
    { "type": "Feature", "properties": { "OBJECTID": 239, "Street": "Cornwall Drive", "Location": "Field At End Of Road", "Ward": "Fishergate", "BinType": "DB" }, "geometry": { "type": "Point", "latitude": -1.070102377957971, "longtitude": 53.93972186763105 } },
    { "type": "Feature", "properties": { "OBJECTID": 241, "Street": "Fishergate", "Location": "Os St Georges School", "Ward": "Fishergate", "BinType": "SMLB" }, "geometry": { "type": "Point", "latitude": -1.075554919097167, "longtitude": 53.950801319621654 } },
    { "type": "Feature", "properties": { "OBJECTID": 242, "Street": "Fishergate", "Location": "Jnc Marlborough Grove", "Ward": "Fishergate", "BinType": "DMLB" }, "geometry": { "type": "Point", "latitude": -1.075854856540045, "longtitude": 53.951019340682407 } },
    { "type": "Feature", "properties": { "OBJECTID": 243, "Street": "Fulford Cross", "Location": "Os School", "Ward": "Fishergate", "BinType": "DMLB" }, "geometry": { "type": "Point", "latitude": -1.076195984873761, "longtitude": 53.943166374760054 } },
    { "type": "Feature", "properties": { "OBJECTID": 244, "Street": "Fulford Road", "Location": "Bus Stop Os Grimcrack Hotel", "Ward": "Fishergate", "BinType": "SMLB" }, "geometry": { "type": "Point", "latitude": -1.074361179211908, "longtitude": 53.941399575134824 } },
    { "type": "Feature", "properties": { "OBJECTID": 245, "Street": "Fulford Road", "Location": "Jw Wenlock Terrace", "Ward": "Fishergate", "BinType": "SMLB" }, "geometry": { "type": "Point", "latitude": -1.074016302803413, "longtitude": 53.946654952862495 } },
    { "type": "Feature", "properties": { "OBJECTID": 246, "Street": "Fulford Road", "Location": "O/S Aldi Store", "Ward": "Fishergate", "BinType": "SMLB" }, "geometry": { "type": "Point", "latitude": -1.074131048716038, "longtitude": 53.943536968961027 } },
    { "type": "Feature", "properties": { "OBJECTID": 247, "Street": "Grants Avenue", "Location": "Jw Heslington Lane", "Ward": "Fulford and Heslington", "BinType": "SMLB" }, "geometry": { "type": "Point", "latitude": -1.067426294302964, "longtitude": 53.938128207621283 } },
    // { "type": "Feature", "properties": { "OBJECTID": 248, "Street": "Heslington Lane", "Location": "Jw Broadway", "Ward": "Fulford and Heslington", "BinType": "DB" }, "geometry": { "type": "Point", "coordinates": [ -1.060994050378509, 53.940334124864833 ] } },
    // { "type": "Feature", "properties": { "OBJECTID": 249, "Street": "Heslington Lane", "Location": "Nr Jjw Stirling Grove", "Ward": "Fulford and Heslington", "BinType": "SMLB" }, "geometry": { "type": "Point", "coordinates": [ -1.062648981814061, 53.939223533532463 ] } },
    // { "type": "Feature", "properties": { "OBJECTID": 250, "Street": "Heslington Road", "Location": "Footpath To Walmgate Stray", "Ward": "Fishergate", "BinType": "DB" }, "geometry": { "type": "Point", "coordinates": [ -1.065675450066437, 53.951722587459507 ] } },
    // { "type": "Feature", "properties": { "OBJECTID": 251, "Street": "Heslington Road", "Location": "Jw Gordon Street", "Ward": "Fishergate", "BinType": "SMLB" }, "geometry": { "type": "Point", "coordinates": [ -1.071176744169497, 53.952394401489741 ] } },
    // { "type": "Feature", "properties": { "OBJECTID": 252, "Street": "Heslington Road", "Location": "Opp Jw Willis Street", "Ward": "Fishergate", "BinType": "SMLB" }, "geometry": { "type": "Point", "coordinates": [ -1.071679326111733, 53.952407273188548 ] } },
    // { "type": "Feature", "properties": { "OBJECTID": 253, "Street": "Heslington Road", "Location": "Opp Jw Wolsey Road", "Ward": "Fishergate", "BinType": "SMLB" }, "geometry": { "type": "Point", "coordinates": [ -1.07037544157083, 53.952109574578735 ] } },
    // { "type": "Feature", "properties": { "OBJECTID": 254, "Street": "Heslington Road", "Location": "Opp School", "Ward": "Fishergate", "BinType": "SMLB" }, "geometry": { "type": "Point", "coordinates": [ -1.063705438360128, 53.951913979998565 ] } },
    // { "type": "Feature", "properties": { "OBJECTID": 255, "Street": "Kilburn Road", "Location": "Jw Fulford Road", "Ward": "Fishergate", "BinType": "DB" }, "geometry": { "type": "Point", "coordinates": [ -1.073796766684432, 53.947623974553217 ] } },
    // { "type": "Feature", "properties": { "OBJECTID": 256, "Street": "Kilburn Road", "Location": "Side Of 59 By Allotments", "Ward": "Fishergate", "BinType": "DB" }, "geometry": { "type": "Point", "coordinates": [ -1.068796393955557, 53.947747113129388 ] } },
    // { "type": "Feature", "properties": { "OBJECTID": 257, "Street": "Lawrence Street", "Location": "Bus Stop Opp Leake Street", "Ward": "Fishergate", "BinType": "DMLB" }, "geometry": { "type": "Point", "coordinates": [ -1.068764150767972, 53.954667690823555 ] } },
    // { "type": "Feature", "properties": { "OBJECTID": 258, "Street": "Paragon Street", "Location": "Os Barbican", "Ward": "Fishergate", "BinType": "SMLB" }, "geometry": { "type": "Point", "coordinates": [ -1.073979353149994, 53.953827160028894 ] } },
    // { "type": "Feature", "properties": { "OBJECTID": 259, "Street": "St Oswalds Road", "Location": "Os St Oswalds Church", "Ward": "Fishergate", "BinType": "SMLB" }, "geometry": { "type": "Point", "coordinates": [ -1.081151298643287, 53.938827169812967 ] } },
    // { "type": "Feature", "properties": { "OBJECTID": 260, "Street": "Blue Bridge Lane", "Location": "End Of Road Nr Ouse", "Ward": "Fishergate", "BinType": "DMLB" }, "geometry": { "type": "Point", "coordinates": [ -1.078009949552043, 53.951413394670737 ] } },
    // { "type": "Feature", "properties": { "OBJECTID": 261, "Street": "Broadway West", "Location": "Cycle Path Past 56", "Ward": "Fishergate", "BinType": "SMLB" }, "geometry": { "type": "Point", "coordinates": [ -1.079446234306469, 53.940854415957517 ] } },
    // { "type": "Feature", "properties": { "OBJECTID": 262, "Street": "Esplanade", "Location": "Ped Access To St Georges Car Park", "Ward": "Fishergate", "BinType": "SMLB" }, "geometry": { "type": "Point", "coordinates": [ -1.080202707401505, 53.953560373084613 ] } },
    // { "type": "Feature", "properties": { "OBJECTID": 263, "Street": "New Walk", "Location": "At Bottom Of Grange Garth", "Ward": "Fishergate", "BinType": "SMLB" }, "geometry": { "type": "Point", "coordinates": [ -1.077993796753931, 53.949381964256489 ] } },
    // { "type": "Feature", "properties": { "OBJECTID": 264, "Street": "New Walk", "Location": "Between Blue Bridge Lane Marlborough Street", "Ward": "Fishergate", "BinType": "SMLB" }, "geometry": { "type": "Point", "coordinates": [ -1.077927257437578, 53.95101728463036 ] } },
    // { "type": "Feature", "properties": { "OBJECTID": 265, "Street": "New Walk", "Location": "Bottom Of Alma Terrace", "Ward": "Fishergate", "BinType": "DB" }, "geometry": { "type": "Point", "coordinates": [ -1.079253342384512, 53.94754007682635 ] } },
    // { "type": "Feature", "properties": { "OBJECTID": 266, "Street": "New Walk", "Location": "Bottom Of Alma Terrace", "Ward": "Fishergate", "BinType": "SMLB" }, "geometry": { "type": "Point", "coordinates": [ -1.079223072143791, 53.947530856788759 ] } },
    // { "type": "Feature", "properties": { "OBJECTID": 267, "Street": "New Walk", "Location": "Bottom Of Hartoft Street", "Ward": "Fishergate", "BinType": "SMLB" }, "geometry": { "type": "Point", "coordinates": [ -1.078421773008925, 53.948630248312718 ] } },
    // { "type": "Feature", "properties": { "OBJECTID": 268, "Street": "New Walk", "Location": "Bottom Of Holly Terrace", "Ward": "Fishergate", "BinType": "SMLB" }, "geometry": { "type": "Point", "coordinates": [ -1.079744189719729, 53.94669895697978 ] } },
    // { "type": "Feature", "properties": { "OBJECTID": 269, "Street": "New Walk", "Location": "Bottom Of Industrial Site", "Ward": "Fishergate", "BinType": "SMLB" }, "geometry": { "type": "Point", "coordinates": [ -1.080150151875088, 53.946252661097674 ] } },
    // { "type": "Feature", "properties": { "OBJECTID": 270, "Street": "New Walk", "Location": "Botton Of Maple Grove", "Ward": "Fishergate", "BinType": "SMLB" }, "geometry": { "type": "Point", "coordinates": [ -1.080728963515625, 53.94418084249299 ] } },
    // { "type": "Feature", "properties": { "OBJECTID": 271, "Street": "New Walk", "Location": "Bottom Marlborough Grove", "Ward": "Fishergate", "BinType": "DB" }, "geometry": { "type": "Point", "coordinates": [ -1.077823186978404, 53.95089964096347 ] } },
    // { "type": "Feature", "properties": { "OBJECTID": 272, "Street": "New Walk", "Location": "end of hospital Fields Road", "Ward": "Fishergate", "BinType": "DMLB" }, "geometry": { "type": "Point", "coordinates": [ -1.080786362150121, 53.945035149983724 ] } },
    // { "type": "Feature", "properties": { "OBJECTID": 273, "Street": "New Walk", "Location": "end of hospital Fields Road", "Ward": "Fishergate", "BinType": "DMLB" }, "geometry": { "type": "Point", "coordinates": [ -1.080868058512298, 53.944784108484818 ] } },
    // { "type": "Feature", "properties": { "OBJECTID": 274, "Street": "New Walk", "Location": "Nr Allotments", "Ward": "Fishergate", "BinType": "DMLB" }, "geometry": { "type": "Point", "coordinates": [ -1.080953480630898, 53.943670238903707 ] } },
    // { "type": "Feature", "properties": { "OBJECTID": 275, "Street": "New Walk", "Location": "Nr Broadway West", "Ward": "Fishergate", "BinType": "SMLB" }, "geometry": { "type": "Point", "coordinates": [ -1.082260538535523, 53.941037730652383 ] } },
    // { "type": "Feature", "properties": { "OBJECTID": 277, "Street": "St Georges Car Park", "Location": "Ped Access To Esplanade", "Ward": "Fishergate", "BinType": "SMLB" }, "geometry": { "type": "Point", "coordinates": [ -1.080202707401505, 53.953560373084613 ] } },
    // { "type": "Feature", "properties": { "OBJECTID": 278, "Street": "St Georges Field", "Location": "Far End Nearer To Blue Bridge", "Ward": "Fishergate", "BinType": "SMLB" }, "geometry": { "type": "Point", "coordinates": [ -1.079458308095211, 53.952763722278469 ] } },
    // { "type": "Feature", "properties": { "OBJECTID": 279, "Street": "St Georges Field Car Park", "Location": "Ped Access To Esplanade", "Ward": "Fishergate", "BinType": "SMLB" }, "geometry": { "type": "Point", "coordinates": [ -1.079816652734031, 53.953099025656563 ] } },
    // { "type": "Feature", "properties": { "OBJECTID": 280, "Street": "St Georges Fields Car Park", "Location": "Ped Acces To Esplanade Nr Tower Gardens", "Ward": "Fishergate", "BinType": "SMLB" }, "geometry": { "type": "Point", "coordinates": [ -1.080438185305722, 53.953939674390227 ] } },
    // { "type": "Feature", "properties": { "OBJECTID": 281, "Street": "Crossfield Crescent", "Location": "Os Bus Stop At Jw Fordlands Road", "Ward": "Fulford and Heslington", "BinType": "SMLB" }, "geometry": { "type": "Point", "coordinates": [ -1.065642657642653, 53.928640875326316 ] } },
    // { "type": "Feature", "properties": { "OBJECTID": 282, "Street": "Fordlands Road", "Location": "In Playground", "Ward": "Fulford and Heslington", "BinType": "SMLB" }, "geometry": { "type": "Point", "coordinates": [ -1.068864068093233, 53.930337677165589 ] } },
    // { "type": "Feature", "properties": { "OBJECTID": 283, "Street": "Fordlands Road", "Location": "Jw Cherrywood Crescent", "Ward": "Fulford and Heslington", "BinType": "DB" }, "geometry": { "type": "Point", "coordinates": [ -1.063158617530952, 53.926671106280587 ] } },
    // { "type": "Feature", "properties": { "OBJECTID": 284, "Street": "Fordlands Road", "Location": "Nr Jw Main Street", "Ward": "Fulford and Heslington", "BinType": "SMLB" }, "geometry": { "type": "Point", "coordinates": [ -1.070548072762044, 53.932004530730268 ] } },
    // { "type": "Feature", "properties": { "OBJECTID": 285, "Street": "Fordlands Road", "Location": "Os Playground", "Ward": "Fulford and Heslington", "BinType": "SMLB" }, "geometry": { "type": "Point", "coordinates": [ -1.068484974807965, 53.930262833410907 ] } },
    // { "type": "Feature", "properties": { "OBJECTID": 286, "Street": "Fulford Road", "Location": "Bus Stop Opp St Oswalds Church", "Ward": "Fulford and Heslington", "BinType": "SMLB" }, "geometry": { "type": "Point", "coordinates": [ -1.073683686509372, 53.938284471099628 ] } },
    // { "type": "Feature", "properties": { "OBJECTID": 287, "Street": "Fulford Road", "Location": "Bus Stop Os St Oswalds Road", "Ward": "Fulford and Heslington", "BinType": "SMLB" }, "geometry": { "type": "Point", "coordinates": [ -1.073484294391076, 53.9383458503846 ] } },
    // { "type": "Feature", "properties": { "OBJECTID": 288, "Street": "Fulfordgate", "Location": "End Of Road Os Tennis Courts", "Ward": "Fulford and Heslington", "BinType": "SMLB" }, "geometry": { "type": "Point", "coordinates": [ -1.067883190129513, 53.936765560622405 ] } },
    // { "type": "Feature", "properties": { "OBJECTID": 289, "Street": "Heslington Lane", "Location": "Jw School Lane", "Ward": "Fulford and Heslington", "BinType": "DB" }, "geometry": { "type": "Point", "coordinates": [ -1.071305042646663, 53.937699858081658 ] } },
    // { "type": "Feature", "properties": { "OBJECTID": 290, "Street": "Heslington Lane", "Location": "School Entrance", "Ward": "Fulford and Heslington", "BinType": "SMLB" }, "geometry": { "type": "Point", "coordinates": [ -1.070480002539686, 53.937810323361589 ] } },
    // { "type": "Feature", "properties": { "OBJECTID": 291, "Street": "Holmfield Lane", "Location": "", "Ward": "Hull Road", "BinType": "DB" }, "geometry": { "type": "Point", "coordinates": [ -1.05140578267921, 53.943287802033218 ] } },
    // { "type": "Feature", "properties": { "OBJECTID": 292, "Street": "LANDING LANE", "Location": "End of track, by benches", "Ward": "Fulford and Heslington", "BinType": "DMLB" }, "geometry": { "type": "Point", "coordinates": [ -1.074744623383102, 53.931641446882537 ] } },
    // { "type": "Feature", "properties": { "OBJECTID": 294, "Street": "Low Lane", "Location": "", "Ward": "Fulford and Heslington", "BinType": "DB" }, "geometry": { "type": "Point", "coordinates": [ -1.041933515867181, 53.943778897982277 ] } },
    // { "type": "Feature", "properties": { "OBJECTID": 295, "Street": "Main Street", "Location": "Bus Stop Nr Jw Pasture Farm Close", "Ward": "Fulford and Heslington", "BinType": "SMLB" }, "geometry": { "type": "Point", "coordinates": [ -1.070971735764439, 53.932816737853912 ] } },
    // { "type": "Feature", "properties": { "OBJECTID": 296, "Street": "Main Street", "Location": "Os 15", "Ward": "Fulford and Heslington", "BinType": "SMLB" }, "geometry": { "type": "Point", "coordinates": [ -1.044670487555738, 53.944681525968853 ] } },
    // { "type": "Feature", "properties": { "OBJECTID": 297, "Street": "Main Street", "Location": "Os 35", "Ward": "Fulford and Heslington", "BinType": "SMLB" }, "geometry": { "type": "Point", "coordinates": [ -1.043821734430177, 53.943820903522628 ] } },
    // { "type": "Feature", "properties": { "OBJECTID": 298, "Street": "Main Street", "Location": "Os 77", "Ward": "Fulford and Heslington", "BinType": "DMLB" }, "geometry": { "type": "Point", "coordinates": [ -1.071549443063093, 53.934924421764123 ] } },
    // { "type": "Feature", "properties": { "OBJECTID": 299, "Street": "Main Street", "Location": "Os 94 (Po)", "Ward": "Fulford and Heslington", "BinType": "SMLB" }, "geometry": { "type": "Point", "coordinates": [ -1.071309495117418, 53.934068696764925 ] } },
    // { "type": "Feature", "properties": { "OBJECTID": 300, "Street": "Main Street", "Location": "Os Little Hall", "Ward": "Fulford and Heslington", "BinType": "SMLB" }, "geometry": { "type": "Point", "coordinates": [ -1.044780196791474, 53.944547576448734 ] } },
    // { "type": "Feature", "properties": { "OBJECTID": 301, "Street": "Main Street", "Location": "Os Little Hall", "Ward": "Fulford and Heslington", "BinType": "SMLB" }, "geometry": { "type": "Point", "coordinates": [ -1.044780196791474, 53.944547576448734 ] } },
    // { "type": "Feature", "properties": { "OBJECTID": 302, "Street": "Main Street", "Location": "Bus Stop O/s 24", "Ward": "Fulford and Heslington", "BinType": "SMLB" }, "geometry": { "type": "Point", "coordinates": [ -1.072124853831089, 53.935764761156257 ] } },
    // { "type": "Feature", "properties": { "OBJECTID": 303, "Street": "Naburn Lane", "Location": "Bus Stop Opp 60", "Ward": "Fulford and Heslington", "BinType": "SMLB" }, "geometry": { "type": "Point", "coordinates": [ -1.079521697819305, 53.924271937128168 ] } },
    // { "type": "Feature", "properties": { "OBJECTID": 304, "Street": "Naburn Lane", "Location": "Bus Stop Os 60", "Ward": "Fulford and Heslington", "BinType": "SMLB" }, "geometry": { "type": "Point", "coordinates": [ -1.079844991944538, 53.924112627760998 ] } },
    // { "type": "Feature", "properties": { "OBJECTID": 305, "Street": "Naburn Lane", "Location": "Jw Selby Road", "Ward": "Fulford and Heslington", "BinType": "SMLB" }, "geometry": { "type": "Point", "coordinates": [ -1.070049492780211, 53.928396437310873 ] } },
    // { "type": "Feature", "properties": { "OBJECTID": 306, "Street": "School Lane", "Location": "Opp Milton House In Playground", "Ward": "Fulford and Heslington", "BinType": "DMLB" }, "geometry": { "type": "Point", "coordinates": [ -1.070347619117136, 53.936227392212942 ] } },
    // { "type": "Feature", "properties": { "OBJECTID": 307, "Street": "The Outgang", "Location": "In sportsfield car park", "Ward": "Fulford and Heslington", "BinType": "DMLB" }, "geometry": { "type": "Point", "coordinates": [ -1.044692903141226, 53.941032527856088 ] } },
    // { "type": "Feature", "properties": { "OBJECTID": 308, "Street": "Bowling Green Lane", "Location": "Jw Lowther Street", "Ward": "Guildhall", "BinType": "SMLB" }, "geometry": { "type": "Point", "coordinates": [ -1.075032882274142, 53.966130953616862 ] } },
    // { "type": "Feature", "properties": { "OBJECTID": 309, "Street": "Bowling Green Lane", "Location": "Jw Lowther Street", "Ward": "Guildhall", "BinType": "DB" }, "geometry": { "type": "Point", "coordinates": [ -1.07518608612811, 53.966096180349354 ] } },
    // { "type": "Feature", "properties": { "OBJECTID": 311, "Street": "Clarence Street", "Location": "Haxby Road Entrance", "Ward": "Guildhall", "BinType": "DB" }, "geometry": { "type": "Point", "coordinates": [ -1.080157794785682, 53.968758846035755 ] } },
    // { "type": "Feature", "properties": { "OBJECTID": 312, "Street": "Clarence Street", "Location": "Opp Entrance To Coach Park", "Ward": "Guildhall", "BinType": "DMLB" }, "geometry": { "type": "Point", "coordinates": [ -1.083296580660714, 53.966050458828867 ] } },
    // { "type": "Feature", "properties": { "OBJECTID": 313, "Street": "Clarence Street", "Location": "Os 48", "Ward": "Guildhall", "BinType": "SMLB" }, "geometry": { "type": "Point", "coordinates": [ -1.082188821143552, 53.967210451587185 ] } },
    // { "type": "Feature", "properties": { "OBJECTID": 314, "Street": "Clarence Street", "Location": "Os Union Terrace Toilets", "Ward": "Guildhall", "BinType": "DMLB" }, "geometry": { "type": "Point", "coordinates": [ -1.083509361017111, 53.966079045749602 ] } },
    // { "type": "Feature", "properties": { "OBJECTID": 315, "Street": "Clarence Street Gardens", "Location": "Playground Entrance", "Ward": "Guildhall", "BinType": "SMLB" }, "geometry": { "type": "Point", "coordinates": [ -1.079244665390048, 53.969381017923247 ] } },
    // { "type": "Feature", "properties": { "OBJECTID": 316, "Street": "Clarence Street Gardens", "Location": "Wigginton Road Entrance", "Ward": "Guildhall", "BinType": "DB" }, "geometry": { "type": "Point", "coordinates": [ -1.081214643052675, 53.969225320329961 ] } },
    // { "type": "Feature", "properties": { "OBJECTID": 317, "Street": "Cycle Path", "Location": "Ashville Street Access", "Ward": "Heworth", "BinType": "DB" }, "geometry": { "type": "Point", "coordinates": [ -1.075556746719043, 53.972768169298071 ] } },
    // { "type": "Feature", "properties": { "OBJECTID": 318, "Street": "Greenfields", "Location": "Bus Stop At Jw Haxby Road Os Scouts Hut", "Ward": "Guildhall", "BinType": "SMLB" }, "geometry": { "type": "Point", "coordinates": [ -1.077591441794707, 53.972451243415939 ] } },
    // { "type": "Feature", "properties": { "OBJECTID": 319, "Street": "Hambleton Terrace", "Location": "Access To Cycle Path", "Ward": "Guildhall", "BinType": "DB" }, "geometry": { "type": "Point", "coordinates": [ -1.081501256770742, 53.973523798044646 ] } },
    // { "type": "Feature", "properties": { "OBJECTID": 320, "Street": "Haxby Road", "Location": "Bus Stop Opp Rose Street By School", "Ward": "Guildhall", "BinType": "SMLB" }, "geometry": { "type": "Point", "coordinates": [ -1.077374465318843, 53.972611362982214 ] } },
    // { "type": "Feature", "properties": { "OBJECTID": 321, "Street": "Haxby Road", "Location": "Bus Stop Osnuffield Hospital", "Ward": "Heworth", "BinType": "SMLB" }, "geometry": { "type": "Point", "coordinates": [ -1.076379714934111, 53.974850735305644 ] } },
    // { "type": "Feature", "properties": { "OBJECTID": 322, "Street": "Haxby Road", "Location": "Opp 105", "Ward": "Guildhall", "BinType": "SMLB" }, "geometry": { "type": "Point", "coordinates": [ -1.078051000683286, 53.970279660980694 ] } },
    // { "type": "Feature", "properties": { "OBJECTID": 323, "Street": "Haxby road", "Location": "Outside clarence Gardens play area", "Ward": "Guildhall", "BinType": "DMLB" }, "geometry": { "type": "Point", "coordinates": [ -1.078550449907619, 53.969753195929449 ] } },
    // { "type": "Feature", "properties": { "OBJECTID": 324, "Street": "Haxby Road", "Location": "Playground Entrance Opp Neville Street", "Ward": "Guildhall", "BinType": "SMLB" }, "geometry": { "type": "Point", "coordinates": [ -1.079244665390048, 53.969381017923247 ] } },
    // { "type": "Feature", "properties": { "OBJECTID": 325, "Street": "Haxby Road", "Location": "Bus Stop O/S 157", "Ward": "Guildhall", "BinType": "SMLB" }, "geometry": { "type": "Point", "coordinates": [ -1.077591441794707, 53.972451243415939 ] } },
    // { "type": "Feature", "properties": { "OBJECTID": 326, "Street": "Huntington Road", "Location": "Nr Heworth Green Roundabout", "Ward": "Guildhall", "BinType": "DMLB" }, "geometry": { "type": "Point", "coordinates": [ -1.074016620006852, 53.965215333744631 ] } },
    // { "type": "Feature", "properties": { "OBJECTID": 328, "Street": "James Street", "Location": "Nr Hallfield Road", "Ward": "Guildhall", "BinType": "DB" }, "geometry": { "type": "Point", "coordinates": [ -1.06908638712945, 53.961411245609874 ] } },
    // { "type": "Feature", "properties": { "OBJECTID": 329, "Street": "Lawrence Street", "Location": "Os 11", "Ward": "Guildhall", "BinType": "DMLB" }, "geometry": { "type": "Point", "coordinates": [ -1.069354777817367, 53.954834051798166 ] } },
    // { "type": "Feature", "properties": { "OBJECTID": 330, "Street": "Lawrence Street", "Location": "Os 73", "Ward": "Guildhall", "BinType": "DMLB" }, "geometry": { "type": "Point", "coordinates": [ -1.065994300474991, 53.954502385110125 ] } },
    // { "type": "Feature", "properties": { "OBJECTID": 331, "Street": "Layerthorpe", "Location": "Bus Stop Os Netto", "Ward": "Guildhall", "BinType": "DMLB" }, "geometry": { "type": "Point", "coordinates": [ -1.072078187066288, 53.962584855786844 ] } },
    // { "type": "Feature", "properties": { "OBJECTID": 332, "Street": "Lord Mayors Walk", "Location": "Jw Moatside Court", "Ward": "Guildhall", "BinType": "DB" }, "geometry": { "type": "Point", "coordinates": [ -1.081891191049707, 53.964799379413805 ] } },
    // { "type": "Feature", "properties": { "OBJECTID": 333, "Street": "Lowther Street", "Location": "Os Lowther Street Shops", "Ward": "Guildhall", "BinType": "SMLB" }, "geometry": { "type": "Point", "coordinates": [ -1.079787831570093, 53.967560602832506 ] } },
    // { "type": "Feature", "properties": { "OBJECTID": 334, "Street": "Lowther Street", "Location": "O/S Spar Shop", "Ward": "Guildhall", "BinType": "SMLB" }, "geometry": { "type": "Point", "coordinates": [ -1.078954310725278, 53.967338504824177 ] } },
    // { "type": "Feature", "properties": { "OBJECTID": 335, "Street": "Marygate Lane", "Location": "Near Tunnel", "Ward": "Guildhall", "BinType": "SMLB" }, "geometry": { "type": "Point", "coordinates": [ -1.091145643247235, 53.96330579796831 ] } },
    // { "type": "Feature", "properties": { "OBJECTID": 336, "Street": "Monkgate", "Location": "Os Job Centre", "Ward": "Guildhall", "BinType": "SMLB" }, "geometry": { "type": "Point", "coordinates": [ -1.077702140709038, 53.963293263477965 ] } },
    // { "type": "Feature", "properties": { "OBJECTID": 337, "Street": "St Johns Car Park", "Location": "Car Parkentrance", "Ward": "Guildhall", "BinType": "SMLB" }, "geometry": { "type": "Point", "coordinates": [ -1.0789963255234, 53.964049197364922 ] } },
    // { "type": "Feature", "properties": { "OBJECTID": 338, "Street": "St Johns Car Park", "Location": "Near Back On Side Path", "Ward": "Guildhall", "BinType": "DMLB" }, "geometry": { "type": "Point", "coordinates": [ -1.078725570155666, 53.96388533707713 ] } },
    // { "type": "Feature", "properties": { "OBJECTID": 339, "Street": "St Johns Street", "Location": "Car Park", "Ward": "Guildhall", "BinType": "DB" }, "geometry": { "type": "Point", "coordinates": [ -1.079131902035543, 53.964122140738219 ] } },
    // { "type": "Feature", "properties": { "OBJECTID": 340, "Street": "St Johns Street", "Location": "Monkbar Car Park", "Ward": "Guildhall", "BinType": "DB" }, "geometry": { "type": "Point", "coordinates": [ -1.078326929422307, 53.964682218048878 ] } },
    // { "type": "Feature", "properties": { "OBJECTID": 341, "Street": "St Nicholas Fields", "Location": "Footpath Near Community Centre", "Ward": "Guildhall", "BinType": "DB" }, "geometry": { "type": "Point", "coordinates": [ -1.060345670563775, 53.959698402981488 ] } },
    // { "type": "Feature", "properties": { "OBJECTID": 342, "Street": "St Nicholas Fields", "Location": "Nr Rawdon Avenue", "Ward": "Guildhall", "BinType": "DB" }, "geometry": { "type": "Point", "coordinates": [ -1.061462002090873, 53.957496057996536 ] } },
    // { "type": "Feature", "properties": { "OBJECTID": 343, "Street": "St Nicholas Fields", "Location": "On Footpath", "Ward": "Guildhall", "BinType": "DB" }, "geometry": { "type": "Point", "coordinates": [ -1.062743852917419, 53.956742075091221 ] } },
    // { "type": "Feature", "properties": { "OBJECTID": 344, "Street": "St Thomas Place", "Location": "Back Of Mansfield House", "Ward": "Guildhall", "BinType": "DB" }, "geometry": { "type": "Point", "coordinates": [ -1.079824845251475, 53.967264280390992 ] } },
    // { "type": "Feature", "properties": { "OBJECTID": 345, "Street": "Townend Street", "Location": "Os Londis Supermarket", "Ward": "Guildhall", "BinType": "SMLB" }, "geometry": { "type": "Point", "coordinates": [ -1.078321731844416, 53.966300028874741 ] } },
    // { "type": "Feature", "properties": { "OBJECTID": 346, "Street": "Walpole Street", "Location": "Jw Haxby Road", "Ward": "Guildhall", "BinType": "DB" }, "geometry": { "type": "Point", "coordinates": [ -1.077806527957098, 53.970304749631815 ] } },
    // { "type": "Feature", "properties": { "OBJECTID": 347, "Street": "Warwick Street", "Location": "Jn with Walpole Street", "Ward": "Guildhall", "BinType": "DMLB" }, "geometry": { "type": "Point", "coordinates": [ -1.076993367401925, 53.969849105094625 ] } },
    // { "type": "Feature", "properties": { "OBJECTID": 348, "Street": "Wigginton Road", "Location": "Bus Stop At Jw Feversham Crescent", "Ward": "Guildhall", "BinType": "SMLB" }, "geometry": { "type": "Point", "coordinates": [ -1.081970535959635, 53.971594953256457 ] } },
    // { "type": "Feature", "properties": { "OBJECTID": 349, "Street": "Wigginton Road", "Location": "Bus Stop Opp Hospital Entrance", "Ward": "Guildhall", "BinType": "SMLB" }, "geometry": { "type": "Point", "coordinates": [ -1.08156757921001, 53.969120161172945 ] } },
    // { "type": "Feature", "properties": { "OBJECTID": 350, "Street": "Bootham", "Location": "Jw Marygate", "Ward": "Guildhall", "BinType": "SMLB" }, "geometry": { "type": "Point", "coordinates": [ -1.087082027151549, 53.963724402016922 ] } },
    // { "type": "Feature", "properties": { "OBJECTID": 352, "Street": "Bootham", "Location": "Opp 78", "Ward": "Guildhall", "BinType": "SMLB" }, "geometry": { "type": "Point", "coordinates": [ -1.089233732329217, 53.965008042555141 ] } },
    // { "type": "Feature", "properties": { "OBJECTID": 353, "Street": "Bootham on Bridge", "Location": "Jnc Bootham Terrace", "Ward": "Clifton", "BinType": "SMLB" }, "geometry": { "type": "Point", "coordinates": [ -1.08971927429775, 53.965110589572625 ] } },
    // { "type": "Feature", "properties": { "OBJECTID": 354, "Street": "Bootham Row", "Location": "In Car Park Nr Meter", "Ward": "Guildhall", "BinType": "SMLB" }, "geometry": { "type": "Point", "coordinates": [ -1.085360301174555, 53.963693335301137 ] } },
    // { "type": "Feature", "properties": { "OBJECTID": 355, "Street": "Marygate", "Location": "At Jw Esplanade", "Ward": "Guildhall", "BinType": "DMLB" }, "geometry": { "type": "Point", "coordinates": [ -1.091146633594099, 53.961157660484389 ] } },
    // { "type": "Feature", "properties": { "OBJECTID": 356, "Street": "Marygate", "Location": "At Jw Hetherton Street", "Ward": "Guildhall", "BinType": "SMLB" }, "geometry": { "type": "Point", "coordinates": [ -1.090202573195497, 53.961815633558793 ] } },
    // { "type": "Feature", "properties": { "OBJECTID": 357, "Street": "Marygate", "Location": "Entrance To Museum Gardens", "Ward": "Guildhall", "BinType": "DMLB" }, "geometry": { "type": "Point", "coordinates": [ -1.089569930449868, 53.96217036488968 ] } },
    // { "type": "Feature", "properties": { "OBJECTID": 358, "Street": "Marygate", "Location": "Entrance To Museum Gardens", "Ward": "Guildhall", "BinType": "SMLB" }, "geometry": { "type": "Point", "coordinates": [ -1.089584974124456, 53.96217946690679 ] } },
    // { "type": "Feature", "properties": { "OBJECTID": 359, "Street": "Marygate", "Location": "Entrance To Museum Gardens", "Ward": "Guildhall", "BinType": "SMLB" }, "geometry": { "type": "Point", "coordinates": [ -1.089584974124456, 53.96217946690679 ] } },
    // { "type": "Feature", "properties": { "OBJECTID": 360, "Street": "Marygate", "Location": "Side Of Boat House Tower", "Ward": "Guildhall", "BinType": "DMLB" }, "geometry": { "type": "Point", "coordinates": [ -1.090494482256733, 53.961008917977907 ] } },
    // { "type": "Feature", "properties": { "OBJECTID": 361, "Street": "Marygate Car Park", "Location": "Entrance To Car Park", "Ward": "Guildhall", "BinType": "SMLB" }, "geometry": { "type": "Point", "coordinates": [ -1.091189611449856, 53.961984886572694 ] } },
    // { "type": "Feature", "properties": { "OBJECTID": 362, "Street": "Marygate Car Park", "Location": "Exit from car park", "Ward": "Guildhall", "BinType": "DMLB" }, "geometry": { "type": "Point", "coordinates": [ -1.090998333878264, 53.962369926326424 ] } },
    // { "type": "Feature", "properties": { "OBJECTID": 363, "Street": "The Esplanade", "Location": "At Gate Nr Entrance To Toilets", "Ward": "Guildhall", "BinType": "DLB" }, "geometry": { "type": "Point", "coordinates": [ -1.087490303643368, 53.960383945269569 ] } },
    // { "type": "Feature", "properties": { "OBJECTID": 364, "Street": "Blake Street", "Location": "Jw St Helens Square", "Ward": "Guildhall", "BinType": "DLB" }, "geometry": { "type": "Point", "coordinates": [ -1.084501732439433, 53.960442108697706 ] } },
    // { "type": "Feature", "properties": { "OBJECTID": 365, "Street": "Castle Street", "Location": "Opp Cliffords Tower", "Ward": "Guildhall", "BinType": "DLB" }, "geometry": { "type": "Point", "coordinates": [ -1.079703876397192, 53.955453037612067 ] } },
    // { "type": "Feature", "properties": { "OBJECTID": 366, "Street": "Church Street", "Location": "St Sampsons Square", "Ward": "Guildhall", "BinType": "DLB" }, "geometry": { "type": "Point", "coordinates": [ -1.081205387647381, 53.959940585183787 ] } },
    // { "type": "Feature", "properties": { "OBJECTID": 367, "Street": "Clarence Street", "Location": "Os Union Terrace Toilets", "Ward": "Guildhall", "BinType": "DMLB" }, "geometry": { "type": "Point", "coordinates": [ -1.083465806735868, 53.965979845015589 ] } },
    // { "type": "Feature", "properties": { "OBJECTID": 368, "Street": "Clifford Street", "Location": "Os Magistrates Court", "Ward": "Guildhall", "BinType": "DLB" }, "geometry": { "type": "Point", "coordinates": [ -1.081723716162556, 53.956466164732745 ] } },
    // { "type": "Feature", "properties": { "OBJECTID": 369, "Street": "Coney Street", "Location": "Os St Martins Church", "Ward": "Guildhall", "BinType": "SLB" }, "geometry": { "type": "Point", "coordinates": [ -1.084295596411288, 53.959415899048899 ] } },
    // { "type": "Feature", "properties": { "OBJECTID": 370, "Street": "Davygate", "Location": "Jw Newstreet", "Ward": "Guildhall", "BinType": "DLB" }, "geometry": { "type": "Point", "coordinates": [ -1.083173138659482, 53.959865732412304 ] } },
    // { "type": "Feature", "properties": { "OBJECTID": 371, "Street": "Davygate", "Location": "Open Space Opp Cooplands", "Ward": "Guildhall", "BinType": "SLB" }, "geometry": { "type": "Point", "coordinates": [ -1.082962361902348, 53.959747279400275 ] } },
    // { "type": "Feature", "properties": { "OBJECTID": 373, "Street": "Deangate", "Location": "Jw Goodramgate", "Ward": "Guildhall", "BinType": "SLB" }, "geometry": { "type": "Point", "coordinates": [ -1.080094577516556, 53.961936426028785 ] } },
    // { "type": "Feature", "properties": { "OBJECTID": 374, "Street": "Duncombe Place", "Location": "Os St Wilfrids Church", "Ward": "Guildhall", "BinType": "SLB" }, "geometry": { "type": "Point", "coordinates": [ -1.084796754983487, 53.961585839491867 ] } },
    // { "type": "Feature", "properties": { "OBJECTID": 375, "Street": "Duncombe Place", "Location": "Os Taxi Rank Opp Church", "Ward": "Guildhall", "BinType": "DLB" }, "geometry": { "type": "Point", "coordinates": [ -1.084631288809516, 53.961485710651921 ] } },
    // { "type": "Feature", "properties": { "OBJECTID": 376, "Street": "Duncombe Place", "Location": "Opp Dean Court Hotel Taxi Rank", "Ward": "Guildhall", "BinType": "DLB" }, "geometry": { "type": "Point", "coordinates": [ -1.084092994156065, 53.961706310978521 ] } },
    // { "type": "Feature", "properties": { "OBJECTID": 377, "Street": "Feasegate", "Location": "Nr Jnc Parliament Street", "Ward": "Guildhall", "BinType": "SLB" }, "geometry": { "type": "Point", "coordinates": [ -1.082195458609461, 53.959274045586817 ] } },
    // { "type": "Feature", "properties": { "OBJECTID": 379, "Street": "Foss Islands Road", "Location": "Near Old Guard House", "Ward": "Guildhall", "BinType": "DMLB" }, "geometry": { "type": "Point", "coordinates": [ -1.071158202751052, 53.958029784341456 ] } },
    // { "type": "Feature", "properties": { "OBJECTID": 381, "Street": "Gillygate", "Location": "Os salvation Army Building", "Ward": "Guildhall", "BinType": "SMLB" }, "geometry": { "type": "Point", "coordinates": [ -1.083432440123574, 53.964721262772805 ] } },
    // { "type": "Feature", "properties": { "OBJECTID": 382, "Street": "Goodramgate", "Location": "Jw Deangate", "Ward": "Guildhall", "BinType": "SLB" }, "geometry": { "type": "Point", "coordinates": [ -1.079788406045112, 53.961996998541345 ] } },
    // { "type": "Feature", "properties": { "OBJECTID": 383, "Street": "Goodramgate", "Location": "Os 65", "Ward": "Guildhall", "BinType": "DLB" }, "geometry": { "type": "Point", "coordinates": [ -1.079904573190817, 53.960874379952671 ] } },
    // { "type": "Feature", "properties": { "OBJECTID": 384, "Street": "High Ousegate", "Location": "Jw Coppergate", "Ward": "Guildhall", "BinType": "DLB" }, "geometry": { "type": "Point", "coordinates": [ -1.080493888378344, 53.958335267545898 ] } },
    // { "type": "Feature", "properties": { "OBJECTID": 385, "Street": "High Ousegate", "Location": "At Green Space", "Ward": "Guildhall", "BinType": "SLB" }, "geometry": { "type": "Point", "coordinates": [ -1.08103176305007, 53.958132656237005 ] } },
    // { "type": "Feature", "properties": { "OBJECTID": 386, "Street": "High Petergate", "Location": "In Front Of Minster", "Ward": "Guildhall", "BinType": "SLB" }, "geometry": { "type": "Point", "coordinates": [ -1.083810610295617, 53.962072669054429 ] } },
    // { "type": "Feature", "properties": { "OBJECTID": 387, "Street": "High Petergate", "Location": "In Sight Of Minster", "Ward": "Guildhall", "BinType": "SLB" }, "geometry": { "type": "Point", "coordinates": [ -1.083553708507752, 53.961971841651284 ] } },
    // { "type": "Feature", "properties": { "OBJECTID": 388, "Street": "Hope Street", "Location": "Jw George Street", "Ward": "Guildhall", "BinType": "DB" }, "geometry": { "type": "Point", "coordinates": [ -1.075119421056103, 53.954644866988112 ] } },
    // { "type": "Feature", "properties": { "OBJECTID": 389, "Street": "Hope Street", "Location": "Down Snicket by Avon House", "Ward": "Guildhall", "BinType": "DB" }, "geometry": { "type": "Point", "coordinates": [ -1.073390209569076, 53.955656186775983 ] } },
    // { "type": "Feature", "properties": { "OBJECTID": 390, "Street": "Jewbury", "Location": "O/S Fossbank Car park", "Ward": "Guildhall", "BinType": "SMLB" }, "geometry": { "type": "Point", "coordinates": [ -1.076070805183149, 53.961932523503584 ] } },
    // { "type": "Feature", "properties": { "OBJECTID": 391, "Street": "Kings Court", "Location": "Opp Jw The Shambles", "Ward": "Guildhall", "BinType": "DLB" }, "geometry": { "type": "Point", "coordinates": [ -1.080044089827479, 53.960075510193555 ] } },
    // { "type": "Feature", "properties": { "OBJECTID": 392, "Street": "Lord Mayors Walk", "Location": "Opp 18", "Ward": "Guildhall", "BinType": "SMLB" }, "geometry": { "type": "Point", "coordinates": [ -1.079161993988683, 53.963448266712824 ] } },
    // { "type": "Feature", "properties": { "OBJECTID": 393, "Street": "Low Petergate", "Location": "Jw Duncombe Place", "Ward": "Guildhall", "BinType": "DLB" }, "geometry": { "type": "Point", "coordinates": [ -1.083284131245864, 53.961754072215328 ] } },
    // { "type": "Feature", "properties": { "OBJECTID": 394, "Street": "Low Petergate", "Location": "Jw Goodramgate", "Ward": "Guildhall", "BinType": "DLB" }, "geometry": { "type": "Point", "coordinates": [ -1.080465828878215, 53.960303439470678 ] } },
    // { "type": "Feature", "properties": { "OBJECTID": 395, "Street": "Lowther Street", "Location": "Os Lowther Street Shops", "Ward": "Guildhall", "BinType": "SMLB" }, "geometry": { "type": "Point", "coordinates": [ -1.078954310725278, 53.967338504824177 ] } },
    // { "type": "Feature", "properties": { "OBJECTID": 396, "Street": "Market Street", "Location": "Jw Spurriergate", "Ward": "Guildhall", "BinType": "SLB" },